{
  "achern": {
    "name": "Achern, Gemeinschaftsschule GMS",
    "city": "Achern",
    "latitude": 48.63210,
    "longitude": 8.07245,
    "address": "Kirchstraße 15-19, 77855 Achern/Baden",
    "phone": "+49 7841 6421700"
  },
  "ahorn": {
    "name": "Ahorn, Lernhaus",
    "city": "Ahorn Eubigheim",
    "latitude": 49.4995,
    "longitude": 9.5441,
    "address": "Schulstraße 31, 74744 Ahorn-Eubigheim",
    "phone": "+49 6296 277"
  },
  "akkurat-wismar.Robert-Lansemann-Schule": {
    "name": "Wismar, Evangelische Schule Robert Lansemann",
    "city": "Wismar",
    "latitude": 53.88430,
    "longitude": 11.47329,
    "address": "Lenensruher Weg 33, 23970 Wismar",
    "phone" : "+49 3841 225148"
  },
  "akkurat-wismar.schwalbennest": {
    "name": "Wismar, Hort Schwalbennest",
    "city": "Wismar",
    "latitude": 53.90494,
    "longitude": 11.42487,
    "address": "Willi-Schröder-Straße 3, 23968 Wismar",
    "phone" : "+49 03841 471852"
  },
  "akkurat-wismar.freieschule": {
    "name": "Wismar, Freie Schule",
    "city": "Wismar",
    "latitude": 53.90430,
    "longitude": 11.42491,
    "address": "Willi-Schröder-Straße 1-3, 23968 Wismar"
  },
  "albert-schweitzer-schule": {
    "name": "Hamburg, Albert-Schweitzer-Schule!",
    "city": "Hamburg",
    "latitude": 53.9049237,
    "longitude": 11.4238315,
    "address": "Schluchtweg 1, 22337 Hamburg",
    "phone" : "+49 40 42893050"
  },
  "boxberg": {
    "name": "Boxberg, Medien- und Kulturzentrum Cafeteria",
    "city": "Boxberg",
    "latitude": 49.48248,
    "longitude": 9.63950,
    "address": "Seebuckel 20, 97944 Boxberg"
  },
  "cafeteria-lauda": {
    "name": "Lauda-Königshofen, Cafeteria im Schulzentrum",
    "city": "Lauda-Königshofen",
    "latitude": 49.5606295,
    "longitude": 9.7046453,
    "address": "Becksteiner Str. 80, 97922 Lauda-Königshofen",
    "phone": "+49 9343 643858"
  },
  "cvb-uffenheim": {
    "name": "Uffenheim, Christian von Bomhard Schule",
    "city": "Uffenheim",
    "latitude": 49.54225,
    "longitude": 10.22537,
    "address": "Im Krämersgarten 10, 97215 Uffenheim",
    "times": "Mo-Do 13:10-14:00 Uhr",
    "phone": "+49 9842 9367 0"
  },
  "evdhg-wuerzburg": {
    "name": "Würzburg, Dag-Hammarskjöld-Gymnasium",
    "city": "Würzburg",
    "latitude": 49.78729,
    "longitude": 9.94709,
    "address": "Frauenlandplatz 5, 97074 Würzburg",
    "times": "Mo-Fr 12:10-13:45 Uhr",
    "phone": "+49 931 26023 0"
  },
  "feldkirchen-donau": {
    "name": "Feldkirchen, Schulausspeisung",
    "city": "Feldkirchen an der Donau (Österreich)",
    "latitude": 48.34567,
    "longitude": 14.05400,
    "address": "Hauptstraße 1, 4101 Feldkirchen a.d.D. (Österreich)",
    "phone": "+43 7233 7283 14"
  },
  "freistadt": {
    "name": "Freistadt, MMS Musikmittelschule",
    "city": "Freistadt (Österreich)",
    "latitude": 48.504779815673828,
    "longitude": 14.498055458068848,
    "address": "Bahnhofstraße 18, 4240 Freistadt (Österreich)",
    "phone": "+43 7942 73412 15"
  },
  "ghrs-kirchberg-jagst": {
    "name": "Kirchberg, August-Ludwig-Schlözer Schule GHRS",
    "city": "Kirchberg an der Jagst",
    "latitude": 49.19511931604727,
    "longitude": 9.98519883923875,
    "times": "Mo-Fr 11:00-13:00 Uhr",
    "address": "Schulstraße 1, 74592 Kirchberg a.d. Jagst"
  },
  "ghs-reinhardshof": {
    "name": "Wertheim, Otfried-Preußler-Schule Reinhardshof",
    "city": "Wertheim am Main",
    "latitude": 49.75168,
    "longitude": 9.49062,
    "address": "Theodor-Heuss-Str. 9, 97877 Wertheim a. Main",
    "phone": "+49 9342 6299"
  },
  "ghs-wertheim": {
    "name": "Wertheim, Gemeinschaftsschule",
    "city": "Wertheim am Main",
    "latitude": 49.75793,
    "longitude": 9.51066,
    "address": "Alte Vockenroter Steige 1, 97877 Wertheim a. Main",
    "phone": "+49 9342 91866 0"
  },
  "grundschule-bestenheid": {
    "name": "Wertheim, Grundschule Bestenheid",
    "city": "Wertheim am Main",
    "latitude": 49.78376,
    "longitude": 9.50345,
    "address": "Robert-Bunsen-Weg 31, 97877 Wertheim a. Main",
    "phone": "+49 9342 91813"
  },
  "guxhagen": {
    "name": "Guxhagen, IGS Integrierte Gesamtschule",
    "city": "Guxhagen",
    "latitude": 51.21055,
    "longitude": 9.47982,
    "address": "Schöne Aussicht 13, 34302 Guxhagen"
  },
  "hansestadt-uelzen": {
    "name": "Hansestadt Uelzen, Ganztagesgrundschulen",
    "city": "Uelzen",
    "latitude": 52.97373,
    "longitude": 10.54075,
    "address": "Hagenskamp 6, 29525 Uelzen"
  },
  "haslach": {
    "name": "Haslach, Heinrich Hansjakob Bildungszentrum",
    "city": "Haslach",
    "latitude": 48.27324168901851,
    "longitude": 8.081064257599264,
    "address": "Richard-Wagner-Straße 10, 77716 Haslach im Kinzigtal",
    "phone": "+49 7832 9754 0"
  },
  "kappelrodeck": {
    "name": "Kappelrodeck, Schlossbergschule",
    "city": "Kappelrodeck",
    "latitude": 48.58988,
    "longitude": 8.11619,
    "address": "Schulstraße 21-25, 77876 Kappelrodeck",
    "phone": "+49 07842 3422"
  },
  "klosterschulen-offenburg": {
    "name": "Offenburg, Klosterschulen",
    "city": "Offenburg",
    "latitude": 48.4714383382292,
    "longitude": 7.9451906280837035,
    "address": "Lange Straße 9, 77652 Offenburg"
  },
  "Kubiz": {
    "name": "Eschweiler, Kubiz Gastronomie",
    "city": "Eschweiler",
    "latitude": 50.805152174612005,
    "longitude": 6.2754117122817945,
    "address": "Kopfstraße 22, 52249 Eschweiler"
  },
  "kuelsheim": {
    "name": "Külsheim, PAGS Pater-Alois-Grimm-Schule",
    "city": "Külsheim",
    "latitude": 49.671281191398826,
    "longitude": 9.524328830850155,
    "address": " Kirchbergweg 11, 97900 Külsheim"
  },
  "langenau": {
    "name": "Langenau, FSR Friedrich-Schiller-Realschule / LUS Ludwig-Uhland-Schule",
    "city": "Langenau",
    "latitude": 48.50113,
    "longitude": 10.12019,
    "address": "Karlstraße 33, 89129 Langenau"
  },
  "langenau-ats": {
    "name": "Langenau, ATS Albecker-Tor-Schulzentrum",
    "city": "Langenau",
    "latitude": 48.49187,
    "longitude": 10.11216,
    "address": "Albecker-Tor-Straße 38, 89129 Langenau"
  },
  "langenau-grundschule": {
    "name": "Langenau, Robert-Bosch-Grundschule Albeck",
    "city": "Langenau",
    "latitude": 48.48280,
    "longitude": 10.06138,
    "address": "Werdenbergstraße 2, 89129 Langenau"
  },
  "liebfrauenschule": {
    "name": "Sigmaringen, Liebfrauenschule",
    "city": "Sigmaringen",
    "latitude": 48.08552,
    "longitude": 9.23099,
    "address": "Liebfrauenweg 2, 72488 Sigmaringen"
  },
  "lohne": {
    "name": "Lohne, Von-Galen-Schule",
    "city": "Lohne",
    "latitude": 52.65941,
    "longitude": 8.24538,
    "address": "Josefstraße 22, 49393 Lohne"
  },
  "maeck-pom": {
    "name": "Neukloster, Mäck Pom Catering",
    "city": "Neukloster",
    "latitude": 53.86331221551793,
    "longitude": 11.693493739350654,
    "address": "August-Bebel-Allee 6, 23992 Neukloster"
  },
  "mensaverein-langenfeld": {
    "name": "Wuppertal, Gesamtschule Langerfeld",
    "city": "Wuppertal",
    "latitude": 51.28475489586379,
    "longitude": 7.237586016339687,
    "address": "Heinrich-Böll-Straße 240/250, 42277 Wuppertal",
    "phone": "+49 202 645416"
  }
}
