{
  "1": {
    "reference": "LinzJKUMensa",
    "name": "Linz, JKU Mensa",
    "city": "Linz (Österreich)",
    "latitude": 48.337574579239906,
    "longitude": 14.319656915655983,
    "address": "Altenbergerstraße 69, 4040 Linz (Österreich)",
    "phone": "0732 2468 4500",
    "times": "Mo-Do 11:30-13:30 Uhr\nFr 11:00-13:00 Uhr",
    "source": "https://menu.mensen.at/index/index/locid/1",
    "openmensa": 1092
  },
  "3": {
    "reference": "InnUniHauptg",
    "name": "Innsbruck, Uni Mensa im Hauptgebäude",
    "city": "Innsbruck (Österreich)",
    "latitude": 47.26308507916346,
    "longitude": 11.382021915618633,
    "address": "Innrain 52, 6020 Innsbruck (Österreich)",
    "phone": "057405 606",
    "times": "Mo-Fr 10:00-15:00 Uhr",
    "source": "https://menu.mensen.at/index/index/locid/3",
    "openmensa": 1093
  },
  "4": {
    "reference": "GrazUniSonnenfels",
    "name": "Graz, Uni Mensa Sonnenfelsplatz",
    "city": "Graz (Österreich)",
    "latitude": 47.076305579153036,
    "longitude": 15.44872511561217,
    "address": "Sonnenfelsplatz 1, 8010 Graz (Österreich)",
    "phone": "05 7405-800",
    "times": "Mo-Fr 10:00-15:00 Uhr",
    "source": "https://menu.mensen.at/index/index/locid/4",
    "openmensa": 1094
  },
  "5": {
    "reference": "WiUniNIG",
    "name": "Wien, Uni Mensa & M-Cafe NIG",
    "city": "Wien (Österreich)",
    "latitude": 48.21415107922962,
    "longitude": 16.35559521565169,
    "address": "Universitätsstraße 7, 1010 Wien (Österreich)",
    "phone": "05 7405-215",
    "times": "Mo-Fr 11:00-14:00 Uhr",
    "source": "https://menu.mensen.at/index/index/locid/5",
    "openmensa": 1095
  },
  "6": {
    "reference": "WiBOKUBioTech",
    "name": "Wien, BOKU BioTech Mensa Muthgasse",
    "city": "Wien (Österreich)",
    "latitude": 48.24696097923231,
    "longitude": 16.36539391565279,
    "address": "Muthgasse 18, 1190 Wien (Österreich)",
    "phone": "05 7405-323",
    "times": "Mo-Fr 07:30-15:00 Uhr",
    "source": "https://menu.mensen.at/index/index/locid/6",
    "openmensa": 1096
  },
  "8": {
    "reference": "WiBOKUmCafeMendel",
    "name": "Wien, BOKU M-Cafe Mendel",
    "city": "Wien (Österreich)",
    "latitude": 48.2365448,
    "longitude": 16.337579,
    "address": "Gregor-Mendel-Straße 33, 1180 Wien (Österreich)",
    "phone": "05 7405-322",
    "times": "Mo-Do 08:00-17:00 Uhr\nFr 8:00-15:00 Uhr",
    "source": "https://menu.mensen.at/index/index/locid/8",
    "openmensa": 1097
  },
  "9": {
    "reference": "WiTUMensaFreihaus",
    "name": "Wien, TU Mensa Markt & M-Cafe Freihaus",
    "city": "Wien (Österreich)",
    "latitude": 48.198869979228434,
    "longitude": 16.36497731565119,
    "address": "Wiedner Hauptstraße 8-10, 1040 Wien (Österreich)",
    "phone": "05 7405-300",
    "times": "Mo-Do 08:30-17:00 Uhr\nFr 8:30-15:00 Uhr",
    "source": "https://menu.mensen.at/index/index/locid/9",
    "openmensa": 1098
  },
  "12": {
    "reference": "WiGRG10",
    "name": "Wien, M-Buffet GRG 10 Laaer Berg",
    "city": "Wien (Österreich)",
    "latitude": 48.1710624,
    "longitude": 16.3834188,
    "address": "Laaer Berg Straße 25-29, 1100 Wien (Österreich)",
    "phone": "057405-238",
    "times": "Mo-Fr 07:30-15:00 Uhr",
    "source": "https://menu.mensen.at/index/index/locid/12",
    "openmensa": 1099
  },
  "13": {
    "reference": "WiTUBuffetGusshausstr",
    "name": "Wien, TU Buffet Gußhausstraße",
    "city": "Wien (Österreich)",
    "latitude": 48.19605257922805,
    "longitude": 16.367418015651015,
    "address": "Gußhausstraße 27-29, 1040 Wien (Österreich)",
    "phone": "05 7405-305",
    "times": "Mo-Fr 09:00-14:00 Uhr",
    "source": "https://menu.mensen.at/index/index/locid/13",
    "openmensa": 1100
  },
  "17": {
    "reference": "WiUniJuridicum",
    "name": "Wien, Uni M-Cafe im Juridicum",
    "city": "Wien (Österreich)",
    "latitude": 48.21405477922966,
    "longitude": 16.362869815651724,
    "address": "Schottenbastei 16, 1010 Wien (Österreich)",
    "phone": "05 7405-313",
    "times": "Mo-Do 08:30-17:30 Uhr\nFr 08:30-15:00 Uhr",
    "source": "https://menu.mensen.at/index/index/locid/17",
    "openmensa": 1101
  },
  "20": {
    "reference": "WiVetMedDA",
    "name": "Wien, VetMed Mensa & M-Cafe (DA)",
    "city": "Wien (Österreich)",
    "latitude": 48.25412497923294,
    "longitude": 16.427926715653065,
    "address": "Josef Baumann Gasse 1, 1210 Wien (Österreich)",
    "phone": "05 7405-314",
    "times": "Mo-Fr 11:00-14:00 Uhr",
    "source": "https://menu.mensen.at/index/index/locid/20",
    "openmensa": 1102
  },
  "22": {
    "reference": "WiUnizUZA1",
    "name": "Wien, Unizentrum Mensa Markt UZA1",
    "city": "Wien (Österreich)",
    "latitude": 48.23179,
    "longitude": 16.35723,
    "address": "Augasse 2-6, 1090 Wien (Österreich)",
    "phone": "05 7405-355",
    "times": "Mo-Fr 11:00-13:30 Uhr",
    "source": "https://menu.mensen.at/index/index/locid/22",
    "openmensa": 1103
  },
  "25": {
    "reference": "WiUnizUZA2",
    "name": "Wien, Unizentrum M-Cafe UZA 2",
    "city": "Wien (Österreich)",
    "latitude": 48.23141887923099,
    "longitude": 16.357359215652245,
    "address": "Nordbergstraße 17, 1090 Wien (Österreich)",
    "phone": "05 7405-317",
    "times": "Mo-Fr 09:00-16:00 Uhr",
    "source": "https://menu.mensen.at/index/index/locid/25",
    "openmensa": 1104
  },
  "28": {
    "reference": "EisenstadtFH",
    "name": "Eisenstadt, FH Mensa",
    "city": "Eisenstadt (Österreich)",
    "latitude": 47.829176179200076,
    "longitude": 16.533097015638273,
    "address": "Campus 1, 7000 Eisenstadt (Österreich)",
    "phone": "05 7405-755",
    "times": "Mo-Do 7:30-15:30 Uhr\nFr 7:30-18:00 Uhr",
    "source": "https://menu.mensen.at/index/index/locid/28",
    "openmensa": 1105
  },
  "29": {
    "reference": "StpBundesschulz",
    "name": "St. Pölten, Mensa Bundesschulzentrum",
    "city": "St. Pölten (Österreich)",
    "latitude": 48.207698079229125,
    "longitude": 15.617274515651484,
    "address": "Waldstraße 1-3, 3100 St. Pölten (Österreich)",
    "phone": "05 7405-326",
    "times": "Mo-Fr 11:00-14:00 Uhr",
    "source": "https://menu.mensen.at/index/index/locid/29",
    "openmensa": 1106
  },
  "30": {
    "reference": "KremsCampusMensa",
    "name": "Krems, Campus Mensa",
    "city": "Krems (Österreich)",
    "latitude": 48.40630477924574,
    "longitude": 15.583249315658415,
    "address": "Dr. Karl-Dorrek-Straße 30, 3500 Krems (Österreich)",
    "phone": "05 7405-324",
    "times": "Mo-Fr 11:00-13:00 Uhr",
    "source": "https://menu.mensen.at/index/index/locid/30",
    "openmensa": 1107
  },
  "34": {
    "reference": "LinzPHDLmensa",
    "name": "Linz, PHDL Mensa",
    "city": "Linz (Österreich)",
    "latitude": 48.29723277923654,
    "longitude": 14.271131215654632,
    "address": "Salesianumweg 3, 4020 Linz (Österreich)",
    "phone": "0732/772666-4357",
    "times": "Mo-Do 07:30-16:30 Uhr\nFr 07:30-17:30 Uhr",
    "source": "https://menu.mensen.at/index/index/locid/34",
    "openmensa": 1108
  },
  "35": {
    "reference": "SalzUniNaWi",
    "name": "Salzburg, Uni Mensa & M-Cafe NaWi",
    "city": "Salzburg (Österreich)",
    "latitude": 47.789157979197206,
    "longitude": 13.058059315636878,
    "address": "Hellbrunner Straße 32a, 5020 Salzburg (Österreich)",
    "phone": "05 7405-505",
    "times": "Mo-Fr 11:30-13:30 Uhr",
    "source": "https://menu.mensen.at/index/index/locid/35",
    "openmensa": 1109
  },
  "36": {
    "reference": "SalzUniToskanatrakt",
    "name": "Salzburg, Uni M-Cafe Toskanatrakt",
    "city": "Salzburg (Österreich)",
    "latitude": 47.79854437919781,
    "longitude": 13.041722215637185,
    "address": "Churfürststraße 1, 5020 Salzburg (Österreich)",
    "phone": "05 7405-501",
    "times": "Mo-Do 08:30-17:00 Uhr\nFr 08:30 - 15:00 Uhr",
    "source": "https://menu.mensen.at/index/index/locid/36",
    "openmensa": 1110
  },
  "37": {
    "reference": "SalzUniRudolfskai",
    "name": "Salzburg, Uni-Cafe Rudolfskai",
    "city": "Salzburg (Österreich)",
    "latitude": 47.79842,
    "longitude": 13.05032,
    "address": "Rudolfs Kai 42, 5020 Salzburg (Österreich)",
    "phone": "0662 8044 6905",
    "times": "Mo-Fr 11:00-14:00 Uhr",
    "source": "https://menu.mensen.at/index/index/locid/37",
    "openmensa": 1111
  },
  "39": {
    "reference": "InnUniNeueMensa",
    "name": "Innsbruck, Uni Neue Mensa",
    "city": "Innsbruck (Österreich)",
    "latitude": 47.26523857916356,
    "longitude": 11.383818815618723,
    "address": "Herzog Siegmund Ufer 15, 6020 Innsbruck (Österreich)",
    "phone": "057405 602",
    "times": "Mo-Fr 11:00-13:30 Uhr",
    "source": "https://menu.mensen.at/index/index/locid/39",
    "openmensa": 1112
  },
  "40": {
    "reference": "InnUniUBIchat",
    "name": "Innsbruck, Uni UBI-Chat (Universitäts-Landesbibliothek)",
    "city": "Innsbruck (Österreich)",
    "latitude": 47.264262279163425,
    "longitude": 11.38314801561867,
    "address": "Innrain 52f, 6020 Innsbruck (Österreich)",
    "phone": "057405 607",
    "times": "Mo-Fr 07:30-14:00 Uhr",
    "source": "https://menu.mensen.at/index/index/locid/40",
    "openmensa": 1113
  },
  "41": {
    "reference": "InnUniSoWi",
    "name": "Innsbruck, Uni SoWi-Lounge",
    "city": "Innsbruck (Österreich)",
    "latitude": 47.26996297916386,
    "longitude": 11.39587441561882,
    "address": "Universitätsstraße 15, 6020 Innsbruck (Österreich)",
    "phone": "05 7405 603",
    "times": "Mo-Fr 08:00-14:00 Uhr",
    "source": "https://menu.mensen.at/index/index/locid/41",
    "openmensa": 1114
  },
  "42": {
    "reference": "InnUniTechnik",
    "name": "Innsbruck, Uni Mensa Technik",
    "city": "Innsbruck (Österreich)",
    "latitude": 47.26412387916341,
    "longitude": 11.341714215618648,
    "address": "Technikerstraße 13, 6020 Innsbruck (Österreich)",
    "phone": "054 7405 604",
    "times": "Mo-Fr 10:00-14:00 Uhr",
    "source": "https://menu.mensen.at/index/index/locid/42",
    "openmensa": 1115
  },
  "43": {
    "reference": "InnUniUSI",
    "name": "Innsbruck, Uni M-Cafe USI",
    "city": "Innsbruck (Österreich)",
    "latitude": 47.25684887916304,
    "longitude": 11.354029215618354,
    "address": "Fürstenweg 185, 6020 Innsbruck (Österreich)",
    "phone": "05 7405 608",
    "times": "Mo-Fr 08:30-22:00 Uhr",
    "source": "https://menu.mensen.at/index/index/locid/43",
    "openmensa": 1116
  },
  "44": {
    "reference": "InnUniBTV",
    "name": "Innsbruck, Uni M-Cafe im BTV-Atrium",
    "city": "Innsbruck (Österreich)",
    "latitude": 47.26727257916353,
    "longitude": 11.42261631561876,
    "address": "Langer Weg 11, 6020 Innsbruck (Österreich)",
    "phone": "05 7405 609",
    "times": "Mo-Fr 10:30-14:00 Uhr",
    "source": "https://menu.mensen.at/index/index/locid/44",
    "openmensa": 1117
  },
  "45": {
    "reference": "KlagenfurtUniMensa",
    "name": "Klagenfurt, Uni Mensa",
    "city": "Klagenfurt (Österreich)",
    "latitude": 46.61804027913145,
    "longitude": 14.26631961559644,
    "address": "Universitätsstraße 90, 9020 Klagenfurt (Österreich)",
    "phone": "05 7405-255",
    "times": "Mo-Fr 11:00-14:30 Uhr",
    "source": "https://menu.mensen.at/index/index/locid/45",
    "openmensa": 1118
  },
  "46": {
    "reference": "KlagenfurtUniMCafe",
    "name": "Klagenfurt, Uni M-Cafe",
    "city": "Klagenfurt (Österreich)",
    "latitude": 46.616047379131366,
    "longitude": 14.263235115596402,
    "address": "Universitätsstraße 65-67, 9020 Klagenfurt (Österreich)",
    "phone": "05 7405-820",
    "times": "Mo-Fr 08:00-18:00 Uhr",
    "source": "https://menu.mensen.at/index/index/locid/46",
    "openmensa": 1119
  },
  "47": {
    "reference": "GrazUniVorklinikum",
    "name": "Graz, Uni M-Cafe Vorklinikum",
    "city": "Graz (Österreich)",
    "latitude": 47.07736317915313,
    "longitude": 15.445907515612236,
    "address": "Harrachgasse 21, 8010 Graz (Österreich)",
    "phone": "05 7405-801",
    "times": "Mo-Do 07:30-18:00 Uhr\nFr 07:30-15:00 Uhr",
    "source": "https://menu.mensen.at/index/index/locid/47",
    "openmensa": 1120
  },
  "48": {
    "reference": "GrazTUInffeld",
    "name": "Graz, TU Mensa & M-Cafe Inffeldgasse",
    "city": "Graz (Österreich)",
    "latitude": 47.0585975,
    "longitude": 15.4601221,
    "address": "Inffeldgasse 10, 8010 Graz (Österreich)",
    "phone": "05 7405-802",
    "times": "Mo-Fr 07:00-15:00 Uhr",
    "source": "https://menu.mensen.at/index/index/locid/48",
    "openmensa": 1121
  },
  "49": {
    "reference": "LeobenMontanuni",
    "name": "Leoben, Montanuniversität Mensa",
    "city": "Leoben (Österreich)",
    "latitude": 47.3854926791706,
    "longitude": 15.090648115622855,
    "address": "Franz Josef Straße 18, 8700 Leoben (Österreich)",
    "phone": "05 7405-806",
    "times": "Mo-Do 07:30-16:00 Uhr\nFr 07:30-15:00 Uhr",
    "source": "https://menu.mensen.at/index/index/locid/49",
    "openmensa": 1122
  },
  "50": {
    "reference": "KapfenbergFH",
    "name": "Kapfenberg, FH Joanneum Mensa",
    "city": "Kapfenberg (Österreich)",
    "latitude": 47.453562179174924,
    "longitude": 15.32956901562522,
    "address": "Werk VI-Straße 46, 8605 Kapfenberg (Österreich)",
    "phone": "05 7405-805",
    "times": "Mo-Fr 11:00-15:00 Uhr",
    "source": "https://menu.mensen.at/index/index/locid/50",
    "openmensa": 1123
  },
  "51": {
    "reference": "WiUnizStudentSpace",
    "name": "Wien, Unizentrum Student Space",
    "city": "Wien (Österreich)",
    "latitude": 48.230303679230886,
    "longitude": 16.356249915652214,
    "address": "Althanstrasse 14, 1090 Wien (Österreich)",
    "phone": "05 7405-319",
    "times": "Mo-Fr 09:00-15:00 Uhr",
    "source": "https://menu.mensen.at/index/index/locid/51",
    "openmensa": 1124
  },
  "52": {
    "reference": "WiTUSchroedingerFreihaus",
    "name": "Wien, TU Cafe Schrödinger im Freihaus",
    "city": "Wien (Österreich)",
    "latitude": 48.198869979228434,
    "longitude": 16.36497731565119,
    "address": "Wiedner Hauptstraße 8-10, 1040 Wien (Österreich)",
    "phone": "05 7405-304",
    "times": "Mo-Do 08:30-19:00 Uhr\nFr 08:30-17:00 Uhr",
    "source": "https://menu.mensen.at/index/index/locid/52",
    "openmensa": 1125
  },
  "53": {
    "reference": "LinzJKUchatCafe",
    "name": "Linz, JKU Ch@t-Cafe",
    "city": "Linz (Österreich)",
    "latitude": 48.338030679239914,
    "longitude": 14.316812615656016,
    "address": "Altenberger Straße 69, 4040 Linz (Österreich)",
    "phone": "0732 2468 4519",
    "times": "Mo-Do 08:00-18:00 Uhr\nFr 08:00-14:00 Uhr",
    "source": "https://menu.mensen.at/index/index/locid/53",
    "openmensa": 1126
  },
  "55": {
    "reference": "InnUniICT",
    "name": "Innsbruck, Uni TechCafe ICT",
    "city": "Innsbruck (Österreich)",
    "latitude": 47.263289879163366,
    "longitude": 11.343740215618617,
    "address": "Technikerstraße 21, 6020 Innsbruck (Österreich)",
    "phone": "05 7405 605",
    "times": "Mo-Do 08:00-15:00 Uhr\nFr 08:00-14:00 Uhr",
    "source": "https://menu.mensen.at/index/index/locid/55",
    "openmensa": 1127
  },
  "62": {
    "reference": "InnUni8082",
    "name": "Innsbruck, Uni Cafe 80/82",
    "city": "Innsbruck (Österreich)",
    "latitude": 47.26030897916333,
    "longitude": 11.379005315618542,
    "address": "Innrain 80-82, 6020 Innsbruck (Österreich)",
    "phone": "05 7405 610",
    "times": "Mo-Fr 11:00-13:30 Uhr",
    "source": "https://menu.mensen.at/index/index/locid/62",
    "openmensa": 1128
  },
  "63": {
    "reference": "LinzJKUscienceCafe",
    "name": "Linz, JKU Science-Cafe",
    "city": "Linz (Österreich)",
    "latitude": 48.33559527923969,
    "longitude": 14.321255015655971,
    "address": "Alteberger Straße 69, 4040 Linz (Österreich)",
    "phone": "0732 2468 4518",
    "times": "Mo-Do 08:00-16:00 Uhr\nFr 08:00-14:00 Uhr",
    "source": "https://menu.mensen.at/index/index/locid/63",
    "openmensa": 1129
  },
  "65": {
    "reference": "WiBOKUPeterJordan",
    "name": "Wien, BOKU Peter-Jordan-Straße",
    "city": "Wien (Österreich)",
    "latitude": 48.2372344,
    "longitude": 16.3350315,
    "address": "Peter Jordan Strasse 76, 1190 Wien (Österreich)",
    "phone": "05 74 05 - 216",
    "times": "Mo-Fr 08:00-15:00 Uhr",
    "source": "https://menu.mensen.at/index/index/locid/65",
    "openmensa": 1130
  },
  "66": {
    "reference": "WiUniOMP",
    "name": "Wien, Uni Mensa OMP",
    "city": "Wien (Österreich)",
    "latitude": 48.21910827923006,
    "longitude": 16.364609915651897,
    "address": "Oskar-Morgenstern-Platz 1, 1090 Wien (Österreich)",
    "phone": "05 7405-321",
    "times": "Mo-Do 08:00-17:30 Uhr\nFr 08:00-16:00 Uhr",
    "source": "https://menu.mensen.at/index/index/locid/66",
    "openmensa": 1131
  },
  "67": {
    "reference": "WiFHTechnikum",
    "name": "Wien, FH Technikum Mensa",
    "city": "Wien (Österreich)",
    "latitude": 48.23905337923155,
    "longitude": 16.375334115652496,
    "address": "Höchstädtplatz 5, 1200 Wien (Österreich)",
    "phone": "05 7405-236",
    "times": "Mo-Do 08:00-20:00 Uhr\nFr 8:00-18:00 Uhr",
    "source": "https://menu.mensen.at/index/index/locid/67",
    "openmensa": 1132
  },
  "68": {
    "reference": "GrazTUrooftop",
    "name": "Graz, TU Rooftop",
    "city": "Graz (Österreich)",
    "latitude": 47.065097779152445,
    "longitude": 15.450048315611815,
    "address": "Stremayrgasse 16 , 8010 Graz (Österreich)",
    "phone": "057405-803",
    "times": "Mo-Do 11:00-14:30 Uhr\nFr 11:00-14:00 Uhr",
    "source": "https://menu.mensen.at/index/index/locid/68",
    "openmensa": 1133
  },
  "69": {
    "reference": "GrazTUcafeteria",
    "name": "Graz, TU Cafeteria",
    "city": "Graz (Österreich)",
    "latitude": 47.065097779152445,
    "longitude": 15.450048315611815,
    "address": "Stremayrgasse 16 , 8010 Graz (Österreich)",
    "phone": "0316/8734714",
    "times": "Mo-Fr 08:00-16:00 Uhr",
    "source": "https://menu.mensen.at/index/index/locid/69",
    "openmensa": 1134
  },
  "70": {
    "reference": "WiTGM",
    "name": "Wien, TGM Mensa & Buffet",
    "city": "Wien (Österreich)",
    "latitude": 48.2365699,
    "longitude": 16.3694653,
    "address": "Wexstraße 19-23, 1200 Wien (Österreich)",
    "phone": "05 7405-320",
    "times": "Mo-Fr 09:30-14:30 Uhr",
    "source": "https://menu.mensen.at/index/index/locid/70",
    "openmensa": 1135
  },
  "72": {
    "reference": "SalzSIAK",
    "name": "Salzburg, Mensa SIAK",
    "city": "Salzburg (Österreich)",
    "latitude": 47.810829,
    "longitude": 13.046747,
    "address": "Weiserstraße 22, 5020 Salzburg (Österreich)",
    "phone": "05 7405-506",
    "times": "Mo-Fr 11:00-14:00 Uhr",
    "source": "https://menu.mensen.at/index/index/locid/72",
    "openmensa": 1136
  },
  "73": {
    "reference": "SalzBG",
    "name": "Salzburg, BG Schulbuffet",
    "city": "Salzburg (Österreich)",
    "latitude": 47.8987616,
    "longitude": 13.1261783,
    "address": "Wallerseestr. 63, 5201 Seekirchen am Wallersee (Österreich)",
    "phone": "06212 267829",
    "times": "Mo-Do 07:30-15:00 Uhr\nFr 09:00-14:00 Uhr",
    "source": "https://menu.mensen.at/index/index/locid/73",
    "openmensa": 1137
  },
  "76": {
    "reference": "WiBetriebsresSVS",
    "name": "Wien, Betriebsrestaurant SVS",
    "city": "Wien (Österreich)",
    "latitude": 48.1879739,
    "longitude": 16.3642011,
    "address": "Wiedner Hauptstraße 84-86, 1051 Wien (Österreich)",
    "phone": "057405-312",
    "times": "Di-Do 7:30-15:00 Uhr\nFr 8:00-14:00 Uhr",
    "source": "https://menu.mensen.at/index/index/locid/76",
    "openmensa": 1138
  },
  "77": {
    "reference": "GrazKUGmCafe",
    "name": "Graz, KUG M-Cafe",
    "city": "Graz (Österreich)",
    "latitude": 47.0731699,
    "longitude": 15.4488635,
    "address": "Brandhofgasse 21, 8010 Graz (Österreich)",
    "phone": "057405-807",
    "times": "Mo-Fr 11:00-14:00 Uhr",
    "source": "https://menu.mensen.at/index/index/locid/77",
    "openmensa": 1139
  },
  "78": {
    "reference": "BadenMensaPH",
    "name": "Baden, Mensa PH NÖ",
    "city": "Baden (Österreich)",
    "latitude": 48.0084924,
    "longitude": 16.2552558,
    "address": "Mühlgasse 67, 2500 Baden (Österreich)",
    "phone": "05 7405-250",
    "times": "Mo-Fr 07:30-15:00 Uhr",
    "source": "https://menu.mensen.at/index/index/locid/78",
    "openmensa": 1140
  },
  "80": {
    "reference": "LinzJKUMensarei",
    "name": "Linz, JKU Die Mensarei",
    "city": "Linz (Österreich)",
    "latitude": 48.337574579239906,
    "longitude": 14.319656915655983,
    "address": "Altenbergerstraße 69, 4040 Linz (Österreich)",
    "phone": "0732 2468 4500",
    "times": "Mo-Do 11:00-14:00 Uhr\nFr 11:00-13:30 Uhr",
    "source": "https://menu.mensen.at/index/index/locid/80",
    "openmensa": 1141
  },
  "81": {
    "reference": "WiPolRossauer",
    "name": "Wien, Polizeikantine Rossauer Kaserne",
    "city": "Wien (Österreich)",
    "latitude": 48.2179309,
    "longitude": 16.3671718,
    "address": "Schlickplatz 6, 1090 Wien (Österreich)",
    "phone": "05 7405-311",
    "times": "Mo-Fr 06:30-15:00 Uhr",
    "source": "https://menu.mensen.at/index/index/locid/81",
    "openmensa": 1142
  },
  "82": {
    "reference": "StpBSZ",
    "name": "St. Pölten, BSZ",
    "city": "St. Pölten (Österreich)",
    "latitude": 48.2008099,
    "longitude": 15.6208403,
    "address": "Europaplatz 2, 3100 St. Pölten (Österreich)",
    "phone": "05 7405-326",
    "times": "Mo-Fr 07:30-14:00 Uhr",
    "source": "https://menu.mensen.at/index/index/locid/82",
    "openmensa": 1143
  },
  "83": {
    "reference": "WiBetriebsresBMI",
    "name": "Wien, Betriebsrestaurant im BM.I",
    "city": "Wien (Österreich)",
    "latitude": 48.208973,
    "longitude": 16.3647236,
    "address": "Minoritenplatz 9, 1010 Wien (Österreich)",
    "phone": "(01)53126 3430",
    "times": "Mo-Fr 11:00-14:00 Uhr",
    "source": "https://menu.mensen.at/index/index/locid/83",
    "openmensa": 1144
  },
  "84": {
    "reference": "SalzLPD",
    "name": "Salzburg, LPD",
    "city": "Salzburg (Österreich)",
    "latitude": 47.7787518,
    "longitude": 13.0673217,
    "address": "Alpenstrasse 90, 5020 Salzburg (Österreich)",
    "phone": "05 74 05-506",
    "times": "Mo-Fr 10:30-14:00 Uhr",
    "source": "https://menu.mensen.at/index/index/locid/84",
    "openmensa": 1145
  },
  "85": {
    "reference": "WiPHMensaBuffet",
    "name": "Wien, PH Mensa & Buffet",
    "city": "Wien (Österreich)",
    "latitude": 48.1644897,
    "longitude": 16.3740974,
    "address": "Grenzackerstraße 18, 1100 Wien (Österreich)",
    "phone": "05 74 05 - 315",
    "times": "Mo-Fr 07:30-15:00 Uhr",
    "source": "https://menu.mensen.at/index/index/locid/85",
    "openmensa": 1146
  },
  "86": {
    "reference": "GrazUniReSoWi",
    "name": "Graz, Uni Deli ReSoWi",
    "city": "Graz (Österreich)",
    "latitude": 47.0786435,
    "longitude": 15.4508869,
    "address": "Universitätsstraße 15/AE, 8010 Graz (Österreich)",
    "phone": "057405-810",
    "times": "Mo-Do 08:00-17:00 Uhr\nFr 08:00-15:00 Uhr",
    "source": "https://menu.mensen.at/index/index/locid/86",
    "openmensa": 1147
  },
  "87": {
    "reference": "WiUniHof8",
    "name": "Wien, Uni M-Cafe Hof 8",
    "city": "Wien (Österreich)",
    "latitude": 48.2130573,
    "longitude": 16.3606723,
    "address": "Universitätsring 1, 1010 Wien (Österreich)",
    "phone": "057405-222",
    "times": "Mo-Do 08:30-16:30 Uhr\nFr 08:30-15:30 Uhr",
    "source": "https://menu.mensen.at/index/index/locid/87",
    "openmensa": 1148
  },
  "88": {
    "reference": "KremsCampusVirginier",
    "name": "Krems, Campus Cafe Virginier",
    "city": "Krems (Österreich)",
    "latitude": 48.40630477924574,
    "longitude": 15.583249315658415,
    "address": "Dr. Karl-Dorrek-Straße 30, 3500 Krems (Österreich)",
    "phone": "057405-325",
    "times": "Mo-Fr 09:00-13:00 Uhr",
    "source": "https://menu.mensen.at/index/index/locid/88",
    "openmensa": 1149
  },
  "89": {
    "reference": "MariaEnzersdorfBRG",
    "name": "Maria Enzersdorf, BRG",
    "city": "Maria Enzersdorf (Österreich)",
    "latitude": 48.0989134,
    "longitude": 16.2702583,
    "address": "Gießhüblerstraße 37, 2344 Maria Enzersdorf (Österreich)",
    "phone": "057405-218",
    "times": "Mo-Fr 7:30-15:00 Uhr",
    "source": "https://menu.mensen.at/index/index/locid/89",
    "openmensa": 1150
  },
  "90": {
    "reference": "EisenstadtWKO",
    "name": "Eisenstadt, WKO",
    "city": "Eisenstadt (Österreich)",
    "latitude": 47.8425345,
    "longitude": 16.5270156,
    "address": "Robert-Graf-Platz 1, 7000 Eisenstadt (Österreich)",
    "phone": "057405-219",
    "times": "Mo-Fr 11:00-14:00 Uhr",
    "source": "https://menu.mensen.at/index/index/locid/90",
    "openmensa": 1151
  }
}