{
  "mensa-hochschulcampus-aschaffenburg": {
    "name": "Aschaffenburg, Mensa Hochschulcampus ğŸ†•",
    "city": "Aschaffenburg",
    "address": "WÃ¼rzburger-StraÃŸe 45, 63743 Aschaffenburg",
    "latitude": 49.971510,
    "longitude": 9.160257
  },
  "mensa-austrasse-bamberg": {
    "name": "Bamberg, Mensa AustraÃŸe ğŸ†•",
    "city": "Bamberg",
    "address": "AustraÃŸe 37, 96047 Bamberg",
    "latitude": 49.893556,
    "longitude": 10.886982
  },
  "mensa-feldkirchenstrasse-bamberg": {
    "name": "Bamberg, Mensa FeldkirchenstraÃŸe ğŸ†•",
    "city": "Bamberg",
    "address": "FeldkirchenstraÃŸe 21, 96052 Bamberg",
    "latitude": 49.906709,
    "longitude": 10.905138
  },
  "mensa-thws-campus-schweinfurt": {
    "name": "Schweinfurt, Mensa THWS Campus ğŸ†•",
    "city": "Schweinfurt",
    "address": "Fritz-Drescher-StraÃŸe 1, 97421 Schweinfurt",
    "latitude": 50.045300,
    "longitude": 10.208876
  },
  "mensa-am-studentenhaus-wuerzburg": {
    "name": "WÃ¼rzburg, Mensa am Studentenhaus ğŸ†•",
    "city": "WÃ¼rzburg",
    "address": "Am Studentenhaus, 97072 WÃ¼rzburg",
    "latitude": 49.785892,
    "longitude": 9.934433
  },
  "mensateria-campus-hubland-nord-wuerzburg": {
      "name": "WÃ¼rzburg, Mensateria Campus Hubland Nord ğŸ†•",
      "city": "WÃ¼rzburg",
      "address": "Emil Hilb Weg 12, 97074 WÃ¼rzburg",
      "latitude": 49.785464,
      "longitude": 9.969137
  },
  "mensa-josef-schneider-strasse-wuerzburg": {
      "name": "WÃ¼rzburg, Mensa Josef-Schneider-StraÃŸe ğŸ†•",
      "city": "WÃ¼rzburg",
      "address": "Josef-Schneider-StraÃŸe 9, 97080 WÃ¼rzburg",
      "latitude": 49.802221,
      "longitude": 9.954735
  },
  "mensa-roentgenring-wuerzburg": {
      "name": "WÃ¼rzburg, Mensa RÃ¶ntgenring ğŸ†•",
      "city": "WÃ¼rzburg",
      "address": "RÃ¶ntgenring 12, 97070 WÃ¼rzburg",
      "latitude": 49.799359,
      "longitude": 9.927276
  }
}
