{
  "tumensa": {
    "name": "Kaiserslautern, TU Mensa",
    "city": "Kaiserslautern",
    "latitude": 49.42483,
    "longitude": 7.75058,
    "address": "Trippstadter Straße, 67663 Kaiserslautern",
    "phone": "0631 205 3039",
    "times": "Mo-Fr 11:15-14:00 Uhr",
    "source": "kaiserslautern/essen-und-trinken/tu-kaiserslautern/mensa/"
  },
  "tuatrium": {
    "name": "Kaiserslautern, TU Mensaria Atrium",
    "city": "Kaiserslautern",
    "latitude": 49.42459722440876,
    "longitude": 7.750554097607171,
    "address": "Trippstadter Straße, 67663 Kaiserslautern",
    "phone": "0631 205 3039",
    "times": "Mo-Do 11:30-14:00 Uhr",
    "source": "kaiserslautern/essen-und-trinken/tu-kaiserslautern/mensaria-atrium/"
  },
  "hska": {
    "name": "Kaiserslautern, Hochschule Mensa",
    "city": "Kaiserslautern",
    "latitude": 49.45172,
    "longitude": 7.76391,
    "address": "Morlauterer Straße 31, 67657 Kaiserslautern",
    "phone": "0631 3724 2400",
    "times": "Mo-Fr 11:00-14:30 Uhr",
    "source": "kaiserslautern/essen-und-trinken/hs-kaiserslautern/mensa/"
  },
  "hszw": {
    "name": "Zweibrücken, Hochschule Kaiserslautern Mensa",
    "city": "Zweibrücken",
    "latitude": 49.26023,
    "longitude": 7.36128,
    "address": "Amerikastraße, Gebäude M, 66482 Zweibrücken",
    "phone": "0631 3724 5190",
    "times": "Mo-Fr 11:00-14:30 Uhr",
    "source": "zweibruecken/essen-and-trinken/mensa/"
  },
  "hspi": {
    "name": "Pirmasens, Hochschule Kaiserslautern Mensa",
    "city": "Pirmasens",
    "latitude": 49.21065,
    "longitude": 7.60186,
    "address": "Carl-Schurz-Straße 10-16, 66953 Pirmasens",
    "phone": "0631 205 3039",
    "times": "Mo-Fr 11:00-14:30 Uhr",
    "source": "pirmasens/essen-and-trinken/mensa/"
  }
}
