{
  "abg": {
    "source": "//abg.inetmenue.de/fs/menu/week",
    "name": "Straubing, ABG Anton-Bruckner-Gymnasium",
    "city": "Straubing",
    "address": "Hans-Adlhoch-Str. 23, 94315 Straubing",
    "phone": "09421 974850",
    "latitude": 48.87319136391559,
    "longitude": 12.563512891005146
  },
  "agw": {
    "source": "//agw.inetmenue.de/fs/menu/week",
    "name": "Weiden, AGW Augustinus Gymnasium",
    "city": "Weiden",
    "address": "Sebastianstraße 28, 92637 Weiden in der Oberpfalz",
    "latitude": 49.679801013982704,
    "longitude": 12.16815366769248
  },
  "akg-s": {
    "source": "//akg-s.inetmenue.de/fs/menu/week",
    "name": "Schwabach, Adam-Kraft-Gymnasium",
    "city": "Schwabach",
    "address": "Bismarckstraße 6, 91126 Schwabach",
    "latitude": 49.32672,
    "longitude": 11.01888
  },
  "ako": {
    "source": "//ako.inetmenue.de/sf/index.php",
    "name": "Bonn, Aloisiuskolleg Gymnasium",
    "city": "Bonn",
    "address": "Elisabethstraße 18, 53177 Bonn",
    "latitude": 50.67683290581429,
    "longitude": 7.150363439102981
  },
  "alemannenschule": {
    "source": "//alemannenschule.inetmenue.de/fs/menu/week",
    "name": "Wutöschingen, Alemannenschule",
    "city": "Wutöschingen",
    "address": "Kirchstraße 2, 79793 Wutöschingen",
    "latitude": 47.659947,
    "longitude": 8.364111
  },
  "aliceschule": {
    "source": "//aliceschule.inetmenue.de/fs/menu/week",
    "name": "Gießen, Aliceschule",
    "city": "Gießen",
    "address": "Gleiberger Weg 16, 35398 Gießen",
    "latitude": 50.59348996299526,
    "longitude": 8.660139407442456
  },
  "als-nordhorn": {
    "source": "//als-nordhorn.inetmenue.de/fs/menu/week",
    "name": "Nordhorn, Astrid Lindgren Schule",
    "city": "Nordhorn",
    "address": "von-Behring-Straße 5, 48529 Nordhorn",
    "latitude": 52.41902591219818,
    "longitude": 7.069125584854073
  },
  "altendorfer-gs-nordhorn": {
    "source": "//altendorfer-gs-nordhorn.inetmenue.de/fs/menu/week",
    "name": "Nordhorn, Altendorfer Grundschule",
    "city": "Nordhorn",
    "address": "Lange Str. 73, 48529 Nordhorn",
    "latitude": 52.4403805056228,
    "longitude": 7.072665144050231
  },
  "altstadt-celle": {
    "source": "//altstadt-celle.inetmenue.de/fs/menu/week",
    "name": "Celle, Blumläger Schule (Altstadt)",
    "city": "Celle",
    "address": "Blumlage 42, 29221 Celle",
    "latitude": 52.61977689864668,
    "longitude": 10.09233112419843
  },
  "amg-r": {
    "source": "//amg-r.inetmenue.de/fs/menu/week",
    "name": "Regensburg, Schulen",
    "city": "Regensburg",
    "address": "Hans-Sachs-Straße 2, 93049 Regensburg",
    "latitude": 49.023281821260134,
    "longitude": 12.07548273322093
  },
  "amseegym": {
    "source": "//amseegym.inetmenue.de/fs/menu/week",
    "name": "Dießen, Ammersee-Gymnasium",
    "city": "Dießen",
    "address": "Dießener Straße 100, 86911 Dießen am Ammersee",
    "latitude": 47.963611,
    "longitude": 11.103889
  },
  "antonianum": {
    "source": "//antonianum.inetmenue.de/fs/menu/week",
    "name": "Geseke, Gymnasium Antonianum",
    "city": "Geseke",
    "address": "Wichburgastraße 1, 59590 Geseke",
    "phone": "02942 9841 500",
    "times": "Mo-Fr 13:00-14:00 Uhr",
    "latitude": 51.640815738831435,
    "longitude": 8.512531290914199
  },
  "arndtschule": {
    "source": "//arndtschule.inetmenue.de/fs/menu/week",
    "name": "Greifswald, EMA Regionale Schule Ernst-Moritz-Arndt",
    "city": "Greifswald",
    "address": "Arndtstraße 37, 17489 Greifswald",
    "latitude": 54.0918320542731,
    "longitude": 13.381815592738176
  },
  "as-huettlingen": {
    "source": "//as-huettlingen.inetmenue.de/fs/menu/week",
    "name": "Hüttlingen-Neuler, Alemannenschule Gemeinschaftsschule",
    "city": "Hüttlingen",
    "address": "St. Ulrichsweg 4, 73460 Hüttlingen",
    "latitude": 48.894328682416074,
    "longitude": 10.100609032631375
  },
  "asg-e": {
    "source": "//asg-e.inetmenue.de/fs/menu/week",
    "name": "Erlangen, ASG Albert-Schweitzer-Gymnasium",
    "city": "Erlangen",
    "address": "Dompfaffstr. 111, 91056 Erlangen",
    "latitude": 49.60029,
    "longitude": 10.974413
  },
  "ass-sf": {
    "source": "//ass-sf.inetmenue.de/fs/menu/week",
    "name": "Sonthofen, Albert-Schweitzer-Schule",
    "city": "Sonthofen",
    "address": "Albert-Schweitzer-Straße 16a, 87527 Sonthofen",
    "latitude": 47.518893984514825,
    "longitude": 10.26364270463873
  },
  "barbara-gs-amberg": {
    "source": "//barbara-gs-amberg.inetmenue.de/fs/menu/week",
    "name": "Amberg, Barbara-Grundschule / Willmannschule",
    "city": "Amberg",
    "address": "Raiffeisenstraße 2, 92224 Amberg",
    "latitude": 49.4358161031059,
    "longitude": 11.87801642904395
  },
  "bbs-n": {
    "source": "//bbs-n.inetmenue.de/fs/menu/week",
    "name": "Nürnberg, BBS Bertolt-Brecht-Schule",
    "city": "Nürnberg",
    "address": "Bertolt-Brecht-Straße 39, 90471 Nürnberg",
    "latitude": 49.414444,
    "longitude": 11.125556
  },
  "bettertaste-sis": {
    "source": "//bettertaste-sis.inetmenue.de/fs/menu/week",
    "name": "Fellbach, SIS Swiss International School Stuttgart-Fellbach",
    "city": "Fellbach",
    "address": "Schmidener Weg 7/1, 70736 Fellbach",
    "phone": "0711 46919410",
    "latitude": 48.82172753160374,
    "longitude": 9.273477180827612
  },
  "bissendorf": {
    "source": "//bissendorf.inetmenue.de/fs/menu/week",
    "name": "Bissendorf, Grundschule",
    "city": "Bissendorf",
    "address": "Am Schulzentrum 2a, 49143 Bissendorf",
    "latitude": 52.23928719678945,
    "longitude": 8.174343951722221
  },
  "bistro32": {
    "source": "//bistro32.inetmenue.de/fs/menu/week",
    "name": "Warendorf, Bistro 32 / Gymnasium Laurentianum",
    "city": "Warendorf",
    "address": "Von-Ketteler-Straße 32, 48231 Warendorf",
    "phone": "02581 7898582",
    "times": "Mo-Di 07:00-15:00 Uhr\nMi 07:00-13:30\nDo 07:00-15:00\nFr 07:00-13:00",
    "latitude": 51.94683955702894,
    "longitude": 7.975517304475585,
    "categories": {
      "https://cdn.inetmenue.de/media%2F00109278%2F9aa8a923e7a06100519dc2d59618697fc81b93273e0c9e2a7af15ebb743627e4.png": "*ignore*"
    }
  },
  "blanke-gs-nordhorn": {
    "source": "//blanke-gs-nordhorn.inetmenue.de/fs/menu/week",
    "name": "Nordhorn, Grundschule Blanke",
    "city": "Nordhorn",
    "address": "Klarastraße 29, 48529 Nordhorn",
    "latitude": 52.411462062762624,
    "longitude": 7.072312926644406
  },
  "blumensiedlung-gs-nordhorn": {
    "source": "//blumensiedlung-gs-nordhorn.inetmenue.de/fs/menu/week",
    "name": "Nordhorn, Grundschule Blumensiedlung",
    "city": "Nordhorn",
    "address": "Schlieperstraße 14, 48527 Nordhorn",
    "latitude": 52.42406411855689,
    "longitude": 7.053906171349657
  },
  "blumlage-celle": {
    "source": "//blumlage-celle.inetmenue.de/fs/menu/week",
    "name": "Celle, Blumläger Schule",
    "city": "Celle",
    "address": "Blumlage 42, 29221 Celle",
    "latitude": 52.61975455989836,
    "longitude": 10.092356687552929
  },
  "boddenschule": {
    "source": "//boddenschule.inetmenue.de/fs/menu/week",
    "name": "Neuenkirchen, Schule am Bodden",
    "city": "Neuenkirchen",
    "address": "Wampener Straße 19, 17498 Neuenkirchen",
    "latitude": 54.119292301953536,
    "longitude": 13.38130924749587
  },
  "bookholt-gs-nordhorn": {
    "source": "//bookholt-gs-nordhorn.inetmenue.de/fs/menu/week",
    "name": "Nordhorn, Grundschule Bookholt",
    "city": "Nordhorn",
    "address": "Veldhauser Straße 304, 48527 Nordhorn",
    "latitude": 52.46135307112567,
    "longitude": 7.050547130605046
  },
  "bruchhagen-celle": {
    "source": "//bruchhagen-celle.inetmenue.de/fs/menu/week",
    "name": "Celle, Grundschule Bruchhagen",
    "city": "Celle",
    "address": "Bruchhagen 2, 29227 Celle",
    "latitude": 52.60019711446387,
    "longitude": 10.069549089880718
  },
  "bs-ei": {
    "source": "//bs-ei.inetmenue.de/fs/menu/week",
    "name": "Eichstätt, Staatliche Berufsschule",
    "city": "Eichstätt",
    "address": "Burgstraße 22, 85072 Eichstätt",
    "latitude": 48.893432988978134,
    "longitude": 11.174896825480596
  },
  "cafeteria-gymnasium": {
    "source": "//cafeteria-gymnasium.inetmenue.de/fs/menu/week",
    "name": "Wermelskirchen, Städtisches Gymnasium",
    "city": "Wermelskirchen",
    "address": "Stockhauser Straße 13, 42929 Wermelskirchen",
    "latitude": 51.139306,
    "longitude": 7.218889
  },
  "carossa": {
    "source": "//carossa.inetmenue.de/fs/menu/week",
    "name": "Landshut, HCG Hans-Carossa-Gymnasium",
    "city": "Landshut",
    "address": "Freyung 630a, 84028 Landshut",
    "latitude": 48.536481,
    "longitude": 12.158881
  },
  "cfs": {
    "source": "//cfs.inetmenue.de/fs/menu/week",
    "name": "Schleiden, CFS Bischöfliche Clara-Fey-Schule",
    "city": "Schleiden",
    "address": "Malmedyer Str. 2, 53937 Schleiden",
    "latitude": 50.531585086786244,
    "longitude": 6.481330772160151
  },
  "cjt-lauf": {
    "source": "//cjt-lauf.inetmenue.de/fs/menu/week",
    "name": "Lauf, Christoph-Jacob-Treu-Gymnasium",
    "city": "Lauf",
    "address": "Hardtstraße 37, 91207 Lauf a.d. Pegnitz",
    "latitude": 49.517029881487886,
    "longitude": 11.269911767458652
  },
  "cos-diessen": {
    "source": "//cos-diessen.inetmenue.de/fs/menu/week",
    "name": "Dießen, Carl-Orff-Schule",
    "city": "Dießen",
    "address": "Buzallee 6, 86911 Dießen am Ammersee",
    "latitude": 47.95034555295041,
    "longitude": 11.09436405380213
  },
  "cve": {
    "source": "//cve.inetmenue.de/fs/menu/week",
    "name": "Ense, Conrad-von-Ense-Schule",
    "city": "Ense",
    "address": "Willi-Eickenbusch-Straße 3, 59469 Ense",
    "latitude": 51.50337755257338,
    "longitude": 7.962649459096555
  },
  "cvs-rellingen": {
    "source": "//cvs-rellingen.inetmenue.de/fs/menu/week",
    "name": "Rellingen, Caspar-Voght-Schule",
    "city": "Rellingen",
    "address": "Schulweg 2-4, 25462 Rellingen",
    "latitude": 53.64782595377473,
    "longitude": 9.857771580291162
  },
  "dahlmannschule": {
    "source": "//dahlmannschule.inetmenue.de/fs/menu/week",
    "name": "Bad Segeberg, Dahlmannschule",
    "city": "Bad Segeberg",
    "address": "Am Markt 4, 23795 Bad Segeberg",
    "latitude": 53.935340450725924,
    "longitude": 10.308687238019925
  },
  "dbgwiehl": {
    "source": "//dbgwiehl.inetmenue.de/fs/menu/week",
    "name": "Wiehl, Dietrich-Bonhoeffer-Gymnasium",
    "city": "Wiehl",
    "address": "Hauptstraße 81, 51674 Wiehl",
    "latitude": 50.949168488600755,
    "longitude": 7.55646895163859
  },
  "dbrs-neustadt": {
    "source": "//dbrs-neustadt.inetmenue.de/fs/menu/week",
    "name": "Neustadt/Aisch, Dietrich-Bonhoeffer-Realschule",
    "city": "Neustadt an der Aisch",
    "address": "Comeniusstraße 4, 91413 Neustadt an der Aisch",
    "latitude": 49.57354317136603,
    "longitude": 10.614066781437815
  },
  "deining": {
    "source": "//deining.inetmenue.de/fs/menu/week",
    "name": "Deining, Grundschule und Mittelschule",
    "city": "Deining",
    "address": "Schulstraße 5, 92364 Deining",
    "latitude": 49.226964926253096,
    "longitude": 11.540998201860921
  },
  "deso": {
    "source": "//deso.inetmenue.de/fs/menu/week",
    "name": "Oberviechtach, Doktor-Eisenbarth-Grundschule",
    "city": "Oberviechtach",
    "address": "Martin-Luther-Str. 7, 92526 Oberviechtach",
    "phone": "09671 9187960",
    "latitude": 49.458643060349026,
    "longitude": 12.413313836003738,
    "categories": {
      "https://cdn.inetmenue.de/media%2F00083883%2Fa740d6272ae30187be5afe7f111aed4d656cf11a.jpg": "*ignore*",
      "https://cdn.inetmenue.de/media%2F00083883%2F92adc8f9a82149753dd745e4b20c1cb2.jpg": "*ignore*"
    }
  },
  "dg-n": {
    "source": "//dg-n.inetmenue.de/fs/menu/week",
    "name": "Nürnberg, Dürer-Gymnasium",
    "city": "Nürnberg",
    "address": "Sielstraße 17, 90429 Nürnberg",
    "latitude": 49.45531333609796,
    "longitude": 11.051185984871074
  },
  "dgg": {
    "source": "//dgg.inetmenue.de/sf/index.php",
    "name": "Glückstadt, Detlefsengymnasium",
    "city": "Glückstadt",
    "address": "Dänenkamp 5, 25348 Glückstadt",
    "latitude": 53.79206809119464,
    "longitude": 9.43349878938644
  },
  "drais-gms-ka": {
    "source": "//drais-gms-ka.inetmenue.de/fs/menu/week",
    "name": "Karlsruhe, Drais-Gemeinschaftsschule",
    "city": "Karlsruhe",
    "address": "Tristanstraße 1, 76185 Karlsruhe",
    "latitude": 49.0154916491168,
    "longitude": 8.367057344445683
  },
  "efs-foehr": {
    "source": "//efs-foehr.inetmenue.de/fs/menu/week",
    "name": "Wyk, Eilun Feer Skuul Gymnasium & Gemeinschaftsschule Insel Föhr",
    "city": "Wyk auf Föhr",
    "address": "Rebbelstieg 59, 25938 Wyk auf Föhr",
    "latitude": 54.69206599981488,
    "longitude": 8.556359847989752
  },
  "eg-mensa": {
    "source": "//eg-mensa.inetmenue.de/fs/menu/week",
    "name": "Lippstadt, Evangelisches Gymnasium",
    "city": "Lippstadt",
    "address": "Beckumer Str. 61, 59555 Lippstadt",
    "latitude": 51.67691986730113,
    "longitude": 8.330476538514809,
    "categories": {
      "https://cdn.inetmenue.de/media%2F01287291%2F81a0bc06e4f144b9da8dbf130bd4223e35b7dcab.png": "Geflügel",
      "https://cdn.inetmenue.de/media%2F01287291%2F2d412164918ba4a36de1b9ed67e4dc3aa6c3766c.png": "Vegetarisch",
      "https://cdn.inetmenue.de/media%2F01287291%2Fb282031130ef5c963935dc3c042f5f6c88e5de17.png": "Fleisch",
      "https://cdn.inetmenue.de/media%2F01287291%2F33a0bc90c85d1cba7c2ded869dfc4e05b9f4f459.png": "Pasta"
    }
  },
  "ehg-w": {
    "source": "//ehg-w.inetmenue.de/fs/menu/week",
    "name": "Weiden, EHG Elly-Heuss-Gymnasium",
    "city": "Weiden in der Oberpfalz",
    "address": "Weigelstraße 26, 92637 Weiden in der Oberpfalz",
    "latitude": 49.67168624310314,
    "longitude": 12.164522558764332
  },
  "eichendorff-er": {
    "source": "//eichendorff-er.inetmenue.de/fs/menu/week",
    "name": "Erlangen, Eichendorffschule",
    "city": "Erlangen",
    "address": "Bierlachweg 11, 91058 Erlangen",
    "latitude": 49.57561545241854,
    "longitude": 10.995317128107677
  },
  "eks-baunatal": {
    "source": "//eks-baunatal.inetmenue.de/fs/menu/week",
    "name": "Baunatal, EKS Erich Kästner Schule",
    "city": "Baunatal",
    "address": "Friedrich-Ebert-Allee 33, 34225 Baunatal",
    "latitude": 51.25509,
    "longitude": 9.3991
  },
  "eks-w": {
    "source": "//eks-w.inetmenue.de/fs/menu/week",
    "name": "Wallenhorst, Erich-Kästner-Schule",
    "city": "Wallenhorst",
    "address": "Hollager Str. 125, 49134 Wallenhorst",
    "latitude": 52.345513329644284,
    "longitude": 7.972905673785469,
    "categories": {
      "https://cdn.inetmenue.de/media%2F00060385%2F9080_0000%2B-%2Blogo%2Bpartyk%25E3%25BCche%2Bkempe%2Bmit%2Bwww.jpg": "*ignore*"
    }
  },
  "ema-gs-nordhorn": {
    "source": "//ema-gs-nordhorn.inetmenue.de/fs/menu/week",
    "name": "Nordhorn, EMA Ernst-Moritz-Arndt Grundschule",
    "city": "Nordhorn",
    "address": "Marktstraße 31, 48529 Nordhorn",
    "latitude": 52.42755170661404,
    "longitude": 7.0719695833360126
  },
  "emlichheim": {
    "source": "//emlichheim.inetmenue.de/fs/menu/week",
    "name": "Emlichheim, Hauptschule / Realschule",
    "city": "Emlichheim",
    "address": "Lägen Diek 8, 49824 Emlichheim",
    "phone": "05943 933351",
    "times": "Mo-Fr 13:15-14:00 Uhr",
    "latitude": 52.60380749723608,
    "longitude": 6.85298560846794
  },
  "eng-e": {
    "source": "//eng-e.inetmenue.de/fs/menu/week",
    "name": "Erlangen, ENG Emmy-Noether-Gymnasium",
    "city": "Erlangen",
    "address": "Noetherstraße 49B, 91058 Erlangen",
    "latitude": 49.56081529447899,
    "longitude": 11.001470330301812
  },
  "ernst-sigle-gymnasium": {
    "source": "//ernst-sigle-gymnasium.inetmenue.de/fs/menu/week",
    "name": "Kornwestheim, ESG Ernst-Sigle-Gymnasium",
    "city": "Kornwestheim",
    "address": "Hohenstaufenallee 8, 70806 Kornwestheim",
    "latitude": 48.85832023213547,
    "longitude": 9.18935139215952
  },
  "esg": {
    "source": "//esg.inetmenue.de/fs/menu/week",
    "name": "Filderstadt, ESG Elisabeth-Selbert-Gymnasium",
    "city": "Filderstadt",
    "address": "Tübinger Str. 71, 70794 Filderstadt",
    "latitude": 48.667891221579275,
    "longitude": 9.211856893513785,
    "categories": {
      "https://cdn.inetmenue.de/media%2F00154084%2F874f33d8e2b09a050b37a1cbc16aa4cdb514c760.jpg": "Mit Schweinefleisch",
      "https://cdn.inetmenue.de/media%2F00154084%2F2112a596b3a10ff68b71aae01606db07f89e585d.jpg": "Mit Geflügel",
      "https://cdn.inetmenue.de/media%2F00154084%2F35aa941028a8f37a6ec518d225752914621a949e.jpg": "Vegetarisch",
      "https://cdn.inetmenue.de/media%2F00154084%2Fa734e36661123484c6c50733c07827964b0c2924.jpg": "Fisch"
    }
  },
  "esn": {
    "source": "//esn.inetmenue.de/fs/menu/week",
    "name": "Naila, Evangelische Schule",
    "city": "Naila",
    "address": "Flurstraße 26, 95119 Naila",
    "latitude": 50.32877004819267,
    "longitude": 11.702291907305838
  },
  "essen-jugendsozialwerk": {
    "source": "//essen-jugendsozialwerk.inetmenue.de/fs/menu/week",
    "name": "Ellrich/Sülzhayn Kindertagesstätten",
    "city": "Ellrich",
    "address": "Benneckensteiner Str. 16, 99755 Ellrich",
    "latitude": 51.607306052424555,
    "longitude": 10.700069655201714
  },
  "ets": {
    "source": "//ets.inetmenue.de/fs/menu/week",
    "name": "Tönning, ETS Eider-Treene-Schule",
    "city": "Tönning",
    "address": "Badallee 14, 25832 Tönning",
    "latitude": 54.312447716902916,
    "longitude": 8.935039138544496
  },
  "evb-wipperfuerth": {
    "source": "//evb-wipperfuerth.inetmenue.de/fs/menu/week",
    "name": "Wipperfürth, EVB Engelbert-von-Berg-Gymnasium",
    "city": "Wipperfürth",
    "address": "Lüdenscheider Str. 46, 51688 Wipperfürth",
    "latitude": 51.120754862668825,
    "longitude": 7.406214679293717
  },
  "fichte-gymnasium-ka": {
    "source": "//fichte-gymnasium-ka.inetmenue.de/fs/menu/week",
    "name": "Karlsruhe, Fichte-Gymnasium",
    "city": "Karlsruhe",
    "address": "Sophienstraße 12-16, 76133 Karlsruhe",
    "latitude": 49.006566258374185,
    "longitude": 8.392936228680034
  },
  "fischer-catering": {
    "source": "//fischer-catering.inetmenue.de/fs/menu/week",
    "name": "Siegen, Fischer Catering",
    "city": "Siegen",
    "address": "Dahlienweg 2, 57078 Siegen-Geisweid",
    "latitude": 50.920152898631144,
    "longitude": 8.004796282987432,
    "categories": {
      "https://cdn.inetmenue.de/media%2F00796887%2Ffc31ebd87206badf01d908fcc8f8ad81644e3053.jpg": "*ignore*",
      "https://cdn.inetmenue.de/media%2F00796887%2F2b536cffc64ab5ab11a180adb20038a2.jpg": "*ignore*"
    }
  },
  "fos-hoki": {
    "source": "//fos-hoki.inetmenue.de/fs/menu/week",
    "name": "Holzkirchen, FOSBOS Fachoberschule",
    "city": "Holzkirchen",
    "address": "Jörg-Hube-Straße 2, 83607 Holzkirchen",
    "latitude": 47.88829026428837,
    "longitude": 11.703516799057834
  },
  "fps": {
    "source": "//fps.inetmenue.de/fs/menu/week",
    "name": "Niebüll, FPS Friedrich-Paulsen-Schule",
    "city": "Niebüll",
    "address": "Friedrich-Paulsen-Straße 5, 25899 Niebüll",
    "latitude": 54.7867135991531,
    "longitude": 8.823817627141372
  },
  "freiherr-vom-stein-oberschule-nordhorn": {
    "source": "//freiherr-vom-stein-oberschule-nordhorn.inetmenue.de/fs/menu/week",
    "name": "Nordhorn, FVS Freiherr-vom-Stein-Schule",
    "city": "Nordhorn",
    "address": "Taunusstraße 6, 48527 Nordhorn",
    "latitude": 52.43164660437201,
    "longitude": 7.056516967483423
  },
  "friedrichschule": {
    "source": "//friedrichschule.inetmenue.de/fs/menu/week",
    "name": "Greifswald, Regionale Schule „Caspar David Friedrich“",
    "city": "Greifswald",
    "address": "Usedomer Weg 1, 17493 Greifswald",
    "latitude": 54.09153188754464,
    "longitude": 13.430936726849836
  },
  "froebelschule-schleiz": {
    "source": "//froebelschule-schleiz.inetmenue.de/fs/menu/week",
    "name": "Schleiz, Friedrich-Fröbel-Schule",
    "city": "Schleiz",
    "address": "Greizer Straße 40a, 07907 Schleiz",
    "latitude": 50.5774765008909,
    "longitude": 11.81862840274218
  },
  "frs": {
    "source": "//frs.inetmenue.de/fs/menu/week",
    "name": "Kirchheim, Freihof-Realschule",
    "city": "Kirchheim unter Teck",
    "address": "Wollmarktstraße 38, 73230 Kirchheim unter Teck",
    "latitude": 48.651696636061544,
    "longitude": 9.452144975080772,
    "categories": {
      "https://cdn.inetmenue.de/media%2F00173247%2F0b8241b52e981b1e9396c9e71b8f9ab9dbce81a6.jpg": "*ignore*",
      "https://cdn.inetmenue.de/media%2F00173247%2Ff8cc4fa40562d24033d77c9fc5cfb7df.jpg": "*ignore*",
      "https://cdn.inetmenue.de/media%2F00173247%2F169c940b81b7c277658a6ad948e1425d.jpg": "*ignore*"
    }
  },
  "fts-husum": {
    "source": "//fts-husum.inetmenue.de/fs/menu/week",
    "name": "Husum, FTS Ferdinand-Tönnies-Schule",
    "city": "Husum",
    "address": "Flensburger Ch 32, 25813 Husum",
    "latitude": 54.48433345021694,
    "longitude": 9.071132683726237,
    "categories": {
      "https://cdn.inetmenue.de/media%2F00282356%2F777900c26dac2184fafd28f1f1d0fa3f6f850c50.jpg": "*remove*"
    }
  },
  "fvks-abtsgmuend": {
    "source": "//fvks-abtsgmuend.inetmenue.de/fs/menu/week",
    "name": "Abtsgmünd, FvKS, Friedrich von Keller Schule",
    "city": "Abtsgmünd",
    "address": "Gaildorfer Str. 4, 73453 Abtsgmünd",
    "latitude": 48.895780666617206,
    "longitude": 9.999790781699561
  },
  "fvstein-lev": {
    "source": "//fvstein-lev.inetmenue.de/fs/menu/week",
    "name": "Leverkusen, FvSt Freiherr-vom-Stein-Gymnasium",
    "city": "Leverkusen",
    "address": "Morsbroicher Str. 77, 51375 Leverkusen",
    "latitude": 51.03441705468072,
    "longitude": 7.038625925619073
  },
  "g-sarstedt": {
    "source": "//g-sarstedt.inetmenue.de/fs/menu/week",
    "name": "Sarstedt, Gymnasium",
    "city": "Sarstedt",
    "address": "Wellweg 43, 31157 Sarstedt",
    "latitude": 52.24061499287136,
    "longitude": 9.860750319671132
  },
  "garssen-celle": {
    "source": "//garssen-celle.inetmenue.de/fs/menu/week",
    "name": "Celle, Garßen",
    "city": "Celle",
    "address": "Alvernsche Str. 5a, 29229 Celle",
    "latitude": 52.65766096139577,
    "longitude": 10.132255317092048
  },
  "gav": {
    "source": "//gav.inetmenue.de/fs/menu/week",
    "name": "Vechta, GAV Gymnasium Antonianum",
    "city": "Vechta",
    "address": "Willohstraße 19, 49377 Vechta",
    "latitude": 52.724361641750534,
    "longitude": 8.289353449000894
  },
  "gemeinschaftsschule-lb": {
    "source": "//gemeinschaftsschule-lb.inetmenue.de/fs/menu/week",
    "name": "Ludwigsburg, Gemeinschaftsschule Innenstadt",
    "city": "Ludwigsburg",
    "address": "Alleenstraße 21, 71638 Ludwigsburg",
    "latitude": 48.89352268606604,
    "longitude": 9.189798141025184
  },
  "georgschule-dortmund": {
    "source": "//georgschule-dortmund.inetmenue.de/fs/menu/week",
    "name": "Dortmund, Georgschule Freie Waldorfschule",
    "city": "Dortmund",
    "address": "Mergelteichstraße 63, 44225 Dortmund",
    "latitude": 51.47162769590516,
    "longitude": 7.464665778056359
  },
  "gesamtschule-hoehscheid": {
    "source": "//gesamtschule-hoehscheid.inetmenue.de/fs/menu/week",
    "name": "Solingen-Höhscheid, Gesamtschule",
    "city": "Solingen",
    "address": "Kanalstraße 20, 42657 Solingen",
    "times": "Mo 12:45-13:45 Uhr\nMi-Fr 12:45-13:45 Uhr",
    "latitude": 51.159254397513635,
    "longitude": 7.077505410716437
  },
  "gesamtschule-waf": {
    "source": "//gesamtschule-waf.inetmenue.de/fs/menu/week",
    "name": "Warendorf, Gesamtschule",
    "city": "Warendorf",
    "address": "Kapellenstraße 21, 48231 Warendorf",
    "latitude": 51.95878187872041,
    "longitude": 7.996730744588276
  },
  "gfb-db": {
    "source": "//gfb-db.inetmenue.de/fs/menu/week",
    "name": "Leipzig, Komplex-Kita „DschungelBande“ auf dem Kids Campus SEB",
    "city": "Leipzig",
    "address": "Friedrich-Dittes-Straße 9, 04318 Leipzig",
    "latitude": 51.3360866747373,
    "longitude": 12.412317110927557
  },
  "gfb-dkh": {
    "source": "//gfb-dkh.inetmenue.de/fs/menu/week",
    "name": "Leipzig, KITA Die kleinen Handwerksmeister",
    "city": "Leipzig",
    "address": "Riebeckstraße 63, 04317 Leipzig",
    "latitude": 51.3253,
    "longitude": 12.40287
  },
  "gfb-udw": {
    "source": "//gfb-udw.inetmenue.de/fs/menu/week",
    "name": "Leipzig, Komplex-Kita „Um Die Welt“ SEB",
    "city": "Leipzig",
    "address": "Plovdiver Str. 50, 04205 Leipzig",
    "latitude": 51.322538112024255,
    "longitude": 12.268394748261148
  },
  "ggs": {
    "source": "//ggs.inetmenue.de/fs/menu/week",
    "name": "Sindelfingen, GGS Goldberg-Gymnasium",
    "city": "Sindelfingen",
    "address": "Frankenstraße 15, 71065 Sindelfingen",
    "latitude": 48.69778588145342,
    "longitude": 9.00890967567435
  },
  "ghsneustadt-celle": {
    "source": "//ghsneustadt-celle.inetmenue.de/fs/menu/week",
    "name": "Celle, Oberschule an der Welfenalle und Grundschule Neustadt",
    "city": "Celle",
    "address": "Welfenallee 11, 29225 Celle",
    "latitude": 52.616995659263374,
    "longitude": 10.052675266011967
  },
  "gm-b": {
    "source": "//gm-b.inetmenue.de/fs/menu/week",
    "name": "Berching, Grund- und Mittelschule",
    "city": "Berching",
    "address": "Schulstraße 17, 92332 Berching",
    "phone": "08462 478",
    "latitude": 49.104483617151004,
    "longitude": 11.440966594262198
  },
  "gm-m": {
    "source": "//gm-m.inetmenue.de/fs/menu/week",
    "name": "Münchberg, Gymnasium Schulkantine PiKANT",
    "city": "Münchberg",
    "address": "Hofer Str. 41, 95213 Münchberg",
    "times": "Mo-Fr 12:15-13:45 Uhr",
    "latitude": 50.19624628968433,
    "longitude": 11.793597922678495
  },
  "gms": {
    "source": "//gms.inetmenue.de/fs/menu/week",
    "name": "Niebüll, Gemeinschaftsschule",
    "city": "Niebüll",
    "address": "Uhlebüller Str. 15, 25899 Niebüll",
    "latitude": 54.79444428554335,
    "longitude": 8.828755271975895
  },
  "gms-argenbuehl": {
    "source": "//gms-argenbuehl.inetmenue.de/fs/menu/week",
    "name": "Argenbühl/Eglofs, Gemeinschaftsschule",
    "city": "Argenbühl",
    "address": "Eisenharzer Weg 7, 88260 Argenbühl",
    "latitude": 47.66503034521601,
    "longitude": 9.936647744399119
  },
  "gms-filderstadt": {
    "source": "//gms-filderstadt.inetmenue.de/fs/menu/week",
    "name": "Filderstadt, GMS Gotthard-Müller-Schule Grund- und Gemeinschaftsschule",
    "city": "Filderstadt",
    "address": "La Souterrainer Str. 9, 70794 Filderstadt",
    "latitude": 48.67156431926996,
    "longitude": 9.211914334849137
  },
  "gms-wtr": {
    "source": "//gms-wtr.inetmenue.de/fs/menu/week",
    "name": "Wassertrüdingen, Grundschule",
    "city": "Wassertrüdingen",
    "address": "Weinbergweg 16, 91717 Wassertrüdingen",
    "latitude": 49.044312544468575,
    "longitude": 10.596985617739715
  },
  "gmskirchseeon": {
    "source": "//gmskirchseeon.inetmenue.de/fs/menu/week",
    "name": "Kirchseeon, GMS Grund- und Mittelschule",
    "city": "Kirchseeon",
    "address": "Graf-Ulrich-Straße 10, 85614 Kirchseeon",
    "latitude": 48.07811329737072,
    "longitude": 11.861092878018013
  },
  "goegy": {
    "source": "//goegy.inetmenue.de/fs/menu/week",
    "name": "Regensburg, Goethe-Gymnasium",
    "city": "Regensburg",
    "address": "Goethestraße 1, 93049 Regensburg",
    "phone": "0941 507 4052",
    "latitude": 49.017939625352234,
    "longitude": 12.074439624964432,
    "categories": {
      "$visitenkarte_09_.jpg": "*ignore*",
      "$visite%2Bzum%2Bladen.bmp.jpg": "*ignore*"
    }
  },
  "goethe-lb": {
    "source": "//goethe-lb.inetmenue.de/fs/menu/week",
    "name": "Ludwigsburg, Goethe-Gymnasium",
    "city": "Ludwigsburg",
    "address": "Seestraße 37, 71638 Ludwigsburg",
    "latitude": 48.89257172764483,
    "longitude": 9.190829196320408
  },
  "grell-gmbh": {
    "source": "//grell-gmbh.inetmenue.de/fs/menu/week",
    "name": "Schkeuditz, Leibniz-Grundschule",
    "city": "Schkeuditz",
    "address": "Ringstraße 10, 04435 Schkeuditz",
    "latitude": 51.39456134343441,
    "longitude": 12.22277909305787
  },
  "gross-hehlen-celle": {
    "source": "//gross-hehlen-celle.inetmenue.de/fs/menu/week",
    "name": "Celle-Groß Hehlen, Grundschule",
    "city": "Celle",
    "address": "Ilexweg 50, 29229 Celle",
    "latitude": 52.656790046120086,
    "longitude": 10.064487784078807
  },
  "grundschule-nordstemmen": {
    "source": "//grundschule-nordstemmen.inetmenue.de/fs/menu/week",
    "name": "Nordstemmen, Grundschule/Asternschule",
    "city": "Nordstemmen",
    "address": "Asternstraße 13, 31171 Nordstemmen",
    "phone": "05069 965056",
    "times": "Mo-Fr 13:00-13:45 Uhr",
    "latitude": 52.15944104584738,
    "longitude": 9.78695937558121
  },
  "grundschule-stadtflur-nordhorn": {
    "source": "//grundschule-stadtflur-nordhorn.inetmenue.de/fs/menu/week",
    "name": "Nordhorn-Stadtflur, Grundschule",
    "city": "Nordhorn",
    "address": "Immenweg 28, 48531 Nordhorn",
    "latitude": 52.4340169385007,
    "longitude": 7.10303868752025
  },
  "gs-am-gildkamp-nordhorn": {
    "source": "//gs-am-gildkamp-nordhorn.inetmenue.de/fs/menu/week",
    "name": "Nordhorn, Maria-Montessori-Schule am Gildkamp",
    "city": "Nordhorn",
    "address": "Gildkamp 5-7, 48529 Nordhorn",
    "latitude": 52.43902182660193,
    "longitude": 7.069808256190464
  },
  "gs-berg-la": {
    "source": "//gs-berg-la.inetmenue.de/fs/menu/week",
    "name": "Landshut-Berg, Grundschule",
    "city": "Landshut",
    "address": "Weinzierlstraße 38, 84036 Landshut",
    "latitude": 48.52663406453295,
    "longitude": 12.158692599217058
  },
  "gs-brandlecht-nordhorn": {
    "source": "//gs-brandlecht-nordhorn.inetmenue.de/fs/menu/week",
    "name": "Nordhorn, Grundschule Brandlecht",
    "city": "Nordhorn",
    "address": "Rolinkskamp 13, 48531 Nordhorn",
    "latitude": 52.396587754072655,
    "longitude": 7.105222407862055
  },
  "gs-bs": {
    "source": "//gs-bs.inetmenue.de/fs/menu/week",
    "name": "Bad Sassendorf, INI Gesamtschule",
    "city": "Bad Sassendorf",
    "address": "Zur Hepper Höhe 4, 59505 Bad Sassendorf",
    "latitude": 51.59208260105332,
    "longitude": 8.16238748068202,
    "categories": {
      "https://cdn.inetmenue.de/media%2F00125584%2F98c46562f7c6a4fb9a4064d806e1810f00851f2c.png": "Geflügel",
      "https://cdn.inetmenue.de/media%2F00125584%2F2330cfd44a2a4bc814cef407b5b9e5c3ec35c871.png": "Vegetarisch",
      "https://cdn.inetmenue.de/media%2F00125584%2Fa75d3537e34047114f5fa150346a22d572cfe1b8.png": "Fisch",
      "https://cdn.inetmenue.de/media%2F00125584%2F788d1ac9129bc07b793296821cac66bdf4e31dd1.png": "Fleisch"
    }
  },
  "gs-gronau": {
    "source": "//gs-gronau.inetmenue.de/fs/menu/week",
    "name": "Gronau, Grundschule am Wildfang",
    "city": "Gronau (Leine)",
    "address": "Lindenallee 2, 31028 Gronau (Leine)",
    "latitude": 52.087510374700635,
    "longitude": 9.77515829460145
  },
  "gs-m-sf": {
    "source": "//gs-m-sf.inetmenue.de/fs/menu/week",
    "name": "Sonthofen, GSB Grundschule an der Berghofer Straße",
    "city": "Sonthofen",
    "address": "Berghofer Str. 8a, 87527 Sonthofen",
    "latitude": 47.51342660813587,
    "longitude": 10.286710806010772
  },
  "gs-ottermeer": {
    "source": "//gs-ottermeer.inetmenue.de/fs/menu/week",
    "name": "Wiesmoor, Grundschule am Ottermeer",
    "city": "Wiesmoor",
    "address": "Am Ottermeer 4, 26639 Wiesmoor",
    "latitude": 53.409514018710816,
    "longitude": 7.693227466434091
  },
  "gs-s": {
    "source": "//gs-s.inetmenue.de/fs/menu/week",
    "name": "Sonthofen, Gymnasium",
    "city": "Sonthofen",
    "address": "Albert-Schweitzer-Straße 21, 87527 Sonthofen",
    "latitude": 47.51308040126818,
    "longitude": 10.269189044092224,
    "categories": {
      "https://cdn.inetmenue.de/media%2F00035266%2F3008_msa.png": "*ignore",
      "https://cdn.inetmenue.de/media%2F00035266%2F3007_msa.png": "*ignore"
    }
  },
  "gs-schulenburg": {
    "source": "//gs-schulenburg.inetmenue.de/fs/menu/week",
    "name": "Pattensen-Schulenburg, Grundschule",
    "city": "Pattensen",
    "address": "Gartenstraße 2, 30982 Pattensen",
    "latitude": 52.197752498266695,
    "longitude": 9.776204392307772
  },
  "gs-suedblanke-nordhorn": {
    "source": "//gs-suedblanke-nordhorn.inetmenue.de/fs/menu/week",
    "name": "Nordhorn, Grundschule Südblanke",
    "city": "Nordhorn",
    "address": "Ursulastraße 21, 48529 Nordhorn",
    "latitude": 52.405328702048,
    "longitude": 7.065240862489971
  },
  "gs-winsen": {
    "source": "//gs-winsen.inetmenue.de/fs/menu/week",
    "name": "Winsen, Grundschule",
    "city": "Winsen (Aller)",
    "address": "Am Amtshof 6, 29308 Winsen (Aller)",
    "latitude": 52.67882740439305,
    "longitude": 9.906254202818525
  },
  "gs-wolfgang-la": {
    "source": "//gs-wolfgang-la.inetmenue.de/fs/menu/week",
    "name": "Landshut, Grundschule St. Wolfgang",
    "city": "Landshut",
    "address": "Weilerstraße 19, 84032 Landshut",
    "latitude": 48.554266853832225,
    "longitude": 12.133146086929008
  },
  "gs1": {
    "source": "//gs1.inetmenue.de/fs/menu/week",
    "name": "Lauf, Grundschule Rudolfshof",
    "city": "Lauf",
    "address": "Reichenberger Str. 2, 91207 Lauf a.d. Pegnitz",
    "latitude": 49.519551737062606,
    "longitude": 11.255656665710648
  },
  "gsadelheidsdorf": {
    "source": "//gsadelheidsdorf.inetmenue.de/fs/menu/week",
    "name": "Adelheidsdorf, Grundschule",
    "city": "Adelheidsdorf",
    "address": "Schulstraße 1, 29352 Adelheidsdorf",
    "latitude": 52.56399179471809,
    "longitude": 10.058479525058612
  },
  "gsg-roethenbach": {
    "source": "//gsg-roethenbach.inetmenue.de/fs/menu/week",
    "name": "Röthenbach, GSG Geschwister-Scholl-Gymnasium",
    "city": "Röthenbach",
    "address": "Geschwister-Scholl-Platz 1, 90552 Röthenbach a.d. Pegnitz",
    "latitude": 49.48114476331973,
    "longitude": 11.252155182902568
  },
  "gsl": {
    "source": "//gsl.inetmenue.de/fs/menu/week",
    "name": "Leck, GSL Gemeinschaftsschule an der Lecker Au",
    "city": "Leck",
    "address": "Am Süderholz 13, 25917 Leck",
    "latitude": 54.768346726569376,
    "longitude": 8.981549137657657
  },
  "gsms-rednitzhembach": {
    "source": "//gsms-rednitzhembach.inetmenue.de/fs/menu/week",
    "name": "Rednitzhembach, Grundschule / Mittelschule",
    "city": "Rednitzhembach",
    "address": "Zwischen den Brücken 3, 91126 Rednitzhembach",
    "latitude": 49.30432535368263,
    "longitude": 11.075005126496045
  },
  "gsnienhagen": {
    "source": "//gsnienhagen.inetmenue.de/fs/menu/week",
    "name": "Nienhagen, Grundschule",
    "city": "Nienhagen",
    "address": "Dorfstraße 25, 29336 Nienhagen",
    "latitude": 52.55373793102969,
    "longitude": 10.110117991425211
  },
  "gsr-n": {
    "source": "//gsr-n.inetmenue.de/fs/menu/week",
    "name": "Nürnberg, GSR Geschwister-Scholl-Realschule",
    "city": "Nürnberg",
    "address": "Muggenhofer Str. 122, 90429 Nürnberg",
    "latitude": 49.460593469192965,
    "longitude": 11.035441399833903
  },
  "gstheobetz": {
    "source": "//gstheobetz.inetmenue.de/fs/menu/week",
    "name": "Neumarkt, Theo-Betz-Grundschule",
    "city": "Neumarkt",
    "address": "Schießstättenweg 4, 92318 Neumarkt in der Oberpfalz",
    "latitude": 49.27877764529548,
    "longitude": 11.469928450590475
  },
  "gswathlingen": {
    "source": "//gswathlingen.inetmenue.de/fs/menu/week",
    "name": "Wathlingen, Grundschule",
    "city": "Wathlingen",
    "address": "Schulstraße 20, 29339 Wathlingen",
    "latitude": 52.538993617737766,
    "longitude": 10.148363014518758
  },
  "gswoffenbach": {
    "source": "//gswoffenbach.inetmenue.de/fs/menu/week",
    "name": "Neumarkt, Flexible Grundschule Woffenbach",
    "city": "Neumarkt",
    "address": "Fibelstraße 1, 92318 Neumarkt in der Oberpfalz",
    "latitude": 49.275534292416495,
    "longitude": 11.439169508719639
  },
  "gtgshambuehren": {
    "source": "//gtgshambuehren.inetmenue.de/fs/menu/week",
    "name": "Hambühren, Manfred-Holz-Grundschule",
    "city": "Hambühren",
    "address": "Hehlenbruchweg 37, 29313 Hambühren",
    "latitude": 52.630402346414435,
    "longitude": 9.97646106497888
  },
  "gtgsoldau": {
    "source": "//gtgsoldau.inetmenue.de/fs/menu/week",
    "name": "Hambühren, Grundschule Oldau",
    "city": "Hambühren",
    "address": "Oldauer Straße 4, 29313 Hambühren",
    "latitude": 52.644053248627934,
    "longitude": 9.933878876719332
  },
  "gyhank-catering": {
    "source": "//gyhank-catering.inetmenue.de/fs/menu/week",
    "name": "Hankensbüttel, Gymnasium",
    "city": "Hankensbüttel",
    "address": "Amtsweg 11, 29386 Hankensbüttel",
    "phone": "05832 984010",
    "times": "Mo-Fr 13:35-14:20 Uhr",
    "latitude": 52.729746421597476,
    "longitude": 10.609584659452528,
    "categories": {
      "https://cdn.inetmenue.de/media%2F01148668%2Fdea540d824a250b87041d98569a086c2d5e6c0bc.png": "Vegetarisch",
      "https://cdn.inetmenue.de/media%2F01148668%2F8a8b0c37aa70e954d4caac219a0100c67a0f541b.png": "Vegetarisch",
      "https://cdn.inetmenue.de/media%2F01148668%2F3f870cd0e643323fc83fdd379388eac3f5f9b4fb.png": "Salat",
      "https://cdn.inetmenue.de/media%2F01148668%2F892b78ee934d480b7e108094b9ec95f11c90e43a.png": "Fleisch",
      "https://cdn.inetmenue.de/media%2F01148668%2F609a5e8853e668d58801a06a3ad1ea74a30a36a9.png": "Fisch",
      "https://cdn.inetmenue.de/media%2F01148668%2F7af1629d2217254cd2db24117f93c1d4e0556dd8.png": "Geflügel",
      "https://cdn.inetmenue.de/media%2F01148668%2F390ebcb31fd884b631aa554b1fea94c9b80f8419.jpg": "*ignore*"
    }
  },
  "gym-d": {
    "source": "//gym-d.inetmenue.de/fs/menu/week",
    "name": "Dinkelsbühl, Gymnasium",
    "city": "Dinkelsbühl",
    "address": "Ulmer Weg 3, 91550 Dinkelsbühl",
    "latitude": 49.06489160443228,
    "longitude": 10.315352308379927
  },
  "gym-hoki": {
    "source": "//gym-hoki.inetmenue.de/fs/menu/week",
    "name": "Holzkirchen, Staatliches Gymnasium",
    "city": "Holzkirchen",
    "address": "Jörg-Hube-Straße 4, 83607 Holzkirchen",
    "latitude": 47.88848038873754,
    "longitude": 11.704373425115557
  },
  "gym-neu": {
    "source": "//gym-neu.inetmenue.de/fs/menu/week",
    "name": "Neutraubling, Gymnasium",
    "city": "Neutraubling",
    "address": "Gregor-Mendel-Straße 5, 93073 Neutraubling",
    "latitude": 48.98610533672629,
    "longitude": 12.206389159222203
  },
  "gym-oberasbach": {
    "source": "//gym-oberasbach.inetmenue.de/fs/menu/week",
    "name": "Oberasbach, DBG Dietrich-Bonhoeffer-Gymnasium",
    "city": "Oberasbach",
    "address": "Albrecht-Dürer-Straße 9-11, 90522 Oberasbach",
    "phone": "0911 69982 0",
    "latitude": 49.433294949469285,
    "longitude": 10.964048636509899,
    "categories": {
      "*test-bild": "*ignore*",
      "https://cdn.inetmenue.de/media%2F00050911%2Fb3462fe8db55f052e2c8c5b4af7cc076875b21f6.jpg": "*closed*"
    }
  },
  "gym-r": {
    "source": "//gym-r.inetmenue.de/fs/menu/week",
    "name": "Roth, Gymnasium",
    "city": "Roth",
    "address": "Brentwoodstraße 4, 91154 Roth",
    "latitude": 49.23597214032897,
    "longitude": 11.093989516014899,
    "categories": {
      "https://cdn.inetmenue.de/media%2F00031300%2F4189_bild_gross.jpg": "*ignore*"
    }
  },
  "gymeck": {
    "source": "//gymeck.inetmenue.de/fs/menu/week",
    "name": "Eckental, GymEck Gymnasium",
    "city": "Eckental",
    "address": "Neunkirchener Str. 1, 90542 Eckental",
    "latitude": 49.57690615210565,
    "longitude": 11.198341707991016
  },
  "gymesb": {
    "source": "//gymesb.inetmenue.de/fs/menu/week",
    "name": "Eschenbach, Gymnasium",
    "city": "Eschenbach",
    "address": "Dr.-Friedrich-Arnold-Straße 2, 92676 Eschenbach in der Oberpfalz",
    "latitude": 49.750856457285025,
    "longitude": 11.817173279322162
  },
  "gymgoch": {
    "source": "//gymgoch.inetmenue.de/fs/menu/week",
    "name": "Goch, Gymnasium",
    "city": "Goch",
    "address": "Hubert-Houben-Straße 9, 47574 Goch",
    "times": "Mo-Fr 12:40-14:40 Uhr",
    "latitude": 51.66644,
    "longitude": 6.16779
  },
  "gymnasium-ergolding": {
    "source": "//gymnasium-ergolding.inetmenue.de/fs/menu/week",
    "name": "Ergolding, Gymnasium",
    "city": "Ergolding",
    "address": "Am Sportpark 8, 84030 Ergolding",
    "phone": "0871 953607 0",
    "latitude": 48.56329,
    "longitude": 12.17371
  },
  "gymnasium-fuessen": {
    "source": "//gymnasium-fuessen.inetmenue.de/fs/menu/week",
    "name": "Füssen, Gymnasium",
    "city": "Füssen",
    "address": "Dr.-Enzinger-Straße 5, 87629 Füssen",
    "latitude": 47.57438582283507,
    "longitude": 10.701420335017694
  },
  "gymnasium-gruenwald": {
    "source": "//gymnasium-gruenwald.inetmenue.de/fs/menu/week",
    "name": "Grünwald, Gymnasium",
    "city": "Grünwald",
    "address": "Laufzorner Str. 1, 82031 Grünwald",
    "latitude": 48.037516342523716,
    "longitude": 11.527343985983773
  },
  "gymnasium-stein": {
    "source": "//gymnasium-stein.inetmenue.de/fs/menu/week",
    "name": "Stein, Gymnasium",
    "city": "Stein",
    "address": "Faber-Castell-Allee 10, 90547 Stein",
    "latitude": 49.40503160623072,
    "longitude": 11.007790864714357
  },
  "gymnew": {
    "source": "//gymnew.inetmenue.de/fs/menu/week",
    "name": "Neustadt/Waldnaab, Gymnasium NEW",
    "city": "Neustadt an der Waldnaab",
    "address": "Bildstraße 20, 92660 Neustadt an der Waldnaab",
    "latitude": 49.725758725933574,
    "longitude": 12.177868826365543
  },
  "h-l-g": {
    "source": "//h-l-g.inetmenue.de/fs/menu/week",
    "name": "Landshut, HLG Hans-Leinberger-Gymnasium",
    "city": "Landshut",
    "address": "Jürgen-Schumann-Straße 20, 84034 Landshut",
    "latitude": 48.542137916261375,
    "longitude": 12.124664011260881
  },
  "heese-sued-celle": {
    "source": "//heese-sued-celle.inetmenue.de/fs/menu/week",
    "name": "Celle, Grundschule Heese-Süd",
    "city": "Celle",
    "address": "Kniprodestraße 8, 29225 Celle",
    "latitude": 52.60523669411917,
    "longitude": 10.042968211019495
  },
  "hehlentor-celle": {
    "source": "//hehlentor-celle.inetmenue.de/fs/menu/week",
    "name": "Celle, Grundschule Hehlentor",
    "city": "Celle",
    "address": "Harburger Str. 33, 29223 Celle",
    "latitude": 52.63118081750074,
    "longitude": 10.080581669133718
  },
  "hg-f": {
    "source": "//hg-f.inetmenue.de/fs/menu/week",
    "name": "Fürth, Hardenberg-Gymnasium",
    "city": "Fürth",
    "address": "Kaiserstraße 92, 90763 Fürth",
    "latitude": 49.46377675774023,
    "longitude": 10.994786361703147
  },
  "hlg-lur": {
    "source": "//hlg-lur.inetmenue.de/fs/menu/week",
    "name": "Fürth, HLG Helene-Lange Gymnasium / Leopold-Uhlstein-Realschule",
    "city": "Fürth",
    "address": "Tannenstraße 19, 90762 Fürth",
    "phone": "0911 9742181",
    "latitude": 49.47102,
    "longitude": 11.0019,
    "categories": {
      "*test-bild": "*ignore*"
    }
  },
  "hoelty-celle": {
    "source": "//hoelty-celle.inetmenue.de/fs/menu/week",
    "name": "Celle, Hölty-Gymnasium",
    "city": "Celle",
    "address": "Ludwig-Hölty-Straße 2, 29225 Celle",
    "latitude": 52.61620335769626,
    "longitude": 10.053541495969554
  },
  "hpk-regenbogen-nordhorn": {
    "source": "//hpk-regenbogen-nordhorn.inetmenue.de/fs/menu/week",
    "name": "Nordhorn, Heilpädagogische Kindertagesstätte Regenbogen",
    "city": "Nordhorn",
    "address": "Mückenweg 100, 48527 Nordhorn",
    "latitude": 52.42770701696443,
    "longitude": 7.040248476288974,
    "categories": {
      "https://cdn.inetmenue.de/media%2F00209660%2Fc4b12bad13767138202e1fdbee79a131d048812fc7fb3b35a792a19d263221d0.jpg": "*ignore*"
    }
  },
  "hrs-e": {
    "source": "//hrs-e.inetmenue.de/fs/menu/week",
    "name": "Esens, Schulzentrum",
    "city": "Esens",
    "address": "Walpurgisstraße, 26427 Esens",
    "latitude": 53.649436636042346,
    "longitude": 7.608409521073294
  },
  "hrs-w": {
    "source": "//hrs-w.inetmenue.de/fs/menu/week",
    "name": "Westerholt, DFG David-Fabricius-Ganztagsschule",
    "city": "Westerholt",
    "address": "Ewigsweg 13, 26556 Westerholt",
    "latitude": 53.59202615863632,
    "longitude": 7.4496430783054945
  },
  "hs-paf": {
    "source": "//hs-paf.inetmenue.de/fs/menu/week",
    "name": "Pfaffenhofen/Ilm, GMP Grundschule und Mittelschule",
    "city": "Pfaffenhofen",
    "address": "Kapellenweg 14, 85276 Pfaffenhofen an der Ilm",
    "latitude": 48.526307835553716,
    "longitude": 11.502741234276622
  },
  "hsdkb": {
    "source": "//hsdkb.inetmenue.de/fs/menu/week",
    "name": "Dinkelsbühl, Hans-von-Raumer-Mittelschule",
    "city": "Dinkelsbühl",
    "address": "Wörter Str. 12, 91550 Dinkelsbühl",
    "latitude": 49.06530216643202,
    "longitude": 10.311173404810768
  },
  "hsg-n": {
    "source": "//hsg-n.inetmenue.de/fs/menu/week",
    "name": "Nürnberg, Hans-Sachs-Gymnasium",
    "city": "Nürnberg",
    "address": "Löbleinstraße 10, 90409 Nürnberg",
    "latitude": 49.46283315162262,
    "longitude": 11.08549895837972
  },
  "hts-malsch": {
    "source": "//hts-malsch.inetmenue.de/fs/menu/week",
    "name": "Malsch, Hans-Thoma-Schule",
    "city": "Malsch",
    "address": "Adolf-Bechler-Straße 11, 76316 Malsch",
    "latitude": 48.8838886057678,
    "longitude": 8.32542240544888
  },
  "humboldt-gymnasium-ka": {
    "source": "//humboldt-gymnasium-ka.inetmenue.de/fs/menu/week",
    "name": "Karlsruhe, Humboldt-Gymnasium",
    "city": "Karlsruhe",
    "address": "Wilhelm-Hausenstein-Allee 22, 76187 Karlsruhe",
    "latitude": 49.03370971775123,
    "longitude": 8.37193271996208
  },
  "humboldt-solingen": {
    "source": "//humboldt-solingen.inetmenue.de/fs/menu/week",
    "name": "Solingen, HGS Humboldtgymnasium",
    "city": "Solingen",
    "address": "Humboldtstraße 5, 42719 Solingen",
    "latitude": 51.17098398275348,
    "longitude": 7.021350471022325
  },
  "humboldtgymnasium": {
    "source": "//humboldtgymnasium.inetmenue.de/fs/menu/week",
    "name": "Greifswald, AvH Alexander-von-Humboldt-Gymnasium",
    "city": "Greifswald",
    "address": "Makarenkostraße 54, 17491 Greifswald",
    "latitude": 54.0825092620849,
    "longitude": 13.419506366082516
  },
  "igs-gifhorn": {
    "source": "//igs-gifhorn.inetmenue.de/fs/menu/week",
    "name": "Gifhorn, IGS Integrierte Gesamtschule",
    "city": "Gifhorn",
    "address": "Lehmweg 58, 38518 Gifhorn",
    "phone": "05371 589110",
    "latitude": 52.477465934346554,
    "longitude": 10.564588752993627
  },
  "igs-os": {
    "source": "//igs-os.inetmenue.de/fs/menu/week",
    "name": "Osnabrück, IGS Integrierte Gesamtschule",
    "city": "Osnabrück",
    "address": "Eversheide 18, 49090 Osnabrück",
    "latitude": 52.29807212437754,
    "longitude": 8.003172493493995
  },
  "ikg-landsberg": {
    "source": "//ikg-landsberg.inetmenue.de/fs/menu/week",
    "name": "Landsberg, IKG Ignaz Kögler Gymnasium",
    "city": "Landsberg",
    "address": "Lechstraße 6, 86899 Landsberg am Lech",
    "latitude": 48.0522926325339,
    "longitude": 10.873705191920465
  },
  "iks-gym-antonianum": {
    "source": "//iks-gym-antonianum.inetmenue.de/fs/menu/week",
    "name": "Geseke, Gymnasium Antonianum",
    "city": "Geseke",
    "address": "Wichburgastraße 1, 59590 Geseke",
    "latitude": 51.64087512070741,
    "longitude": 8.512568357346426
  },
  "jahnschule-suro": {
    "source": "//jahnschule-suro.inetmenue.de/fs/menu/week",
    "name": "Sulzbach-Rosenberg, Jahnschule",
    "city": "Sulzbach-Rosenberg",
    "address": "Jahnstraße 34, 92237 Sulzbach-Rosenberg",
    "phone": "09661 7112",
    "latitude": 49.49540738594714,
    "longitude": 11.771051068845727
  },
  "jbg-tuerkheim": {
    "source": "//jbg-tuerkheim.inetmenue.de/fs/menu/week",
    "name": "Türkheim, JBG Joseph-Bernhart-Gymnasium",
    "city": "Türkheim",
    "address": "Irsinger Str. 7, 86842 Türkheim",
    "latitude": 48.05056070461774,
    "longitude": 10.63932657839945
  },
  "jfs-bramstedt": {
    "source": "//jfs-bramstedt.inetmenue.de/fs/menu/week",
    "name": "Bad Bramstedt, JFS Jürgen-Fuhlendorf-Schule",
    "city": "Bad Bramstedt",
    "address": "Düsternhoop 48, 24576 Bad Bramstedt",
    "latitude": 53.925273762232514,
    "longitude": 9.894246771100047
  },
  "jlg-burscheid": {
    "source": "//jlg-burscheid.inetmenue.de/fs/menu/week",
    "name": "Burscheid, JLG Johannes-Löh-Gesamtschule",
    "city": "Burscheid",
    "address": "Auf dem Schulberg 2-4, 51399 Burscheid",
    "latitude": 51.08167452568985,
    "longitude": 7.111054073803879
  },
  "jng-rohr": {
    "source": "//jng-rohr.inetmenue.de/fs/menu/week",
    "name": "Rohr, JNG Johannes-Nepomuk-Gymnasium",
    "city": "Rohr",
    "address": "Abt-Dominik-Prokop-Platz 1, 93352 Rohr in Niederbayern",
    "latitude": 48.76881619035856,
    "longitude": 11.966867628107323
  },
  "joho-fs": {
    "source": "//joho-fs.inetmenue.de/fs/menu/week",
    "name": "Freising, JoHo Josef-Hofmiller-Gymnasium",
    "city": "Freising",
    "address": "Vimystraße 14, 85354 Freising",
    "latitude": 48.40566948039614,
    "longitude": 11.742916302405716
  },
  "jpem": {
    "source": "//jpem.inetmenue.de/fs/menu/week",
    "name": "Freystadt, Martini Schule",
    "city": "Freystadt",
    "address": "Allersberger Straße 11, 92342 Freystadt",
    "latitude": 49.200983050835525,
    "longitude": 11.325699367132884
  },
  "js-w": {
    "source": "//js-w.inetmenue.de/fs/menu/week",
    "name": "Wallenhorst, Johannisschule",
    "city": "Wallenhorst",
    "address": "Johannisstraße 3, 49134 Wallenhorst",
    "latitude": 52.34294620175149,
    "longitude": 8.000788642208283
  },
  "jsbg": {
    "source": "//jsbg.inetmenue.de/fs/menu/week",
    "name": "Windsbach, JSBG Johann Sebastian Bach Gymnasium",
    "city": "Windsbach",
    "address": "Moosbacher Str. 9, 91575 Windsbach",
    "latitude": 49.25132577263771,
    "longitude": 10.83523592569461
  },
  "jura-am": {
    "source": "//jura-am.inetmenue.de/fs/menu/week",
    "name": "Amberg, Dreifaltigkeitsschule / GMG",
    "city": "Amberg",
    "address": "Krumbacher Straße 2a, 92224 Amberg",
    "phone": "09621 103500",
    "latitude": 49.44456134000765,
    "longitude": 11.8792138589685,
    "categories": {
      "https://cdn.inetmenue.de/media%2F03137012%2Fca7de5e3e1344a09f6707cfda3208b7babc91a28.jpg": "*closed*"
    }
  },
  "kartoffelhof-kunitz": {
    "source": "//kartoffelhof-kunitz.inetmenue.de/fs/menu/week",
    "name": "Wustrow (Wendland), Christian-Henning-Schule  / Kartoffelhof Kunitz",
    "city": "Wustrow (Wendland)",
    "address": "Mühlensteg 3, 29462 Wustrow (Wendland)",
    "latitude": 52.92592862200304,
    "longitude": 11.11722324163919,
    "categories": {
      "https://cdn.inetmenue.de/media%2F00255113%2F16262_veggie-day.jpg": "Vegetarisch"
    }
  },
  "katholische-schule-celle": {
    "source": "//katholische-schule-celle.inetmenue.de/fs/menu/week",
    "name": "Celle, Katholische Grundschule",
    "city": "Celle",
    "address": "Julius-von-der-Wall-Straße 7, 29221 Celle",
    "latitude": 52.61924605546234,
    "longitude": 10.077910528792568
  },
  "kernschule": {
    "source": "//kernschule.inetmenue.de/fs/menu/week",
    "name": "Schwabach, Johannes-Kern-Mittelschule",
    "city": "Schwabach",
    "address": "Paul-Goppelt-Straße 4, 91126 Schwabach",
    "latitude": 49.3346712744329,
    "longitude": 11.022654728121044
  },
  "kgs-w": {
    "source": "//kgs-w.inetmenue.de/fs/menu/week",
    "name": "Wittmund, KGS Alexander von Humboldt Schule",
    "city": "Wittmund",
    "address": "Brandenburger Str. 4, 26409 Wittmund",
    "latitude": 53.57866712430852,
    "longitude": 7.763170746298772
  },
  "kiga-jsw": {
    "source": "//kiga-jsw.inetmenue.de/fs/menu/week",
    "name": "Nordhausen, Kindergarten Jugendsozialwerk",
    "city": "Nordhausen",
    "address": "Rudolf-Breitscheid-Str. 9, 99734 Nordhausen",
    "latitude": 51.46971200203513,
    "longitude": 10.805819645024428
  },
  "kinderhaus-kunterbunt-nordhorn": {
    "source": "//kinderhaus-kunterbunt-nordhorn.inetmenue.de/fs/menu/week",
    "name": "Nordhorn, Kindertagesstätte Villa Kunterbunt",
    "city": "Nordhorn",
    "address": "Hohenkörbener Weg 101 / Drosselstraße 6, 48527 Nordhorn",
    "latitude": 52.449577403668705,
    "longitude": 7.067231549618261
  },
  "kinderhort-rieden": {
    "source": "//kinderhort-rieden.inetmenue.de/fs/menu/week",
    "name": "Sonthofen, Kinderhort Ried",
    "city": "Sonthofen",
    "address": "Albert-Schweitzer-Straße 14a, 87527 Sonthofen",
    "latitude": 47.51939595053983,
    "longitude": 10.263954344461423
  },
  "kita-archenoah-nordhorn": {
    "source": "//kita-archenoah-nordhorn.inetmenue.de/fs/menu/week",
    "name": "Nordhorn, Kindertagesstätte Arche Noah",
    "city": "Nordhorn",
    "address": "NINO-Allee 24, 48529 Nordhorn",
    "latitude": 52.42487966957284,
    "longitude": 7.068805934277898
  },
  "kita-pfefferkoerner-nordhorn": {
    "source": "//kita-pfefferkoerner-nordhorn.inetmenue.de/fs/menu/week",
    "name": "Samern, Kita Pfefferkörner",
    "city": "Samern",
    "address": "Am Wehr 11, 48465 Samern",
    "latitude": 52.301890186884634,
    "longitude": 7.236190652260874
  },
  "klausheide-gs-nordhorn": {
    "source": "//klausheide-gs-nordhorn.inetmenue.de/fs/menu/week",
    "name": "Nordhorn, Maria-Montessori-Schule Klausheide",
    "city": "Nordhorn",
    "address": "Heideschulstraße 14, 48531 Nordhorn",
    "latitude": 52.460045343729206,
    "longitude": 7.155775114732777
  },
  "klein-hehlen-celle": {
    "source": "//klein-hehlen-celle.inetmenue.de/fs/menu/week",
    "name": "Celle, Grundschule Klein Hehlen",
    "city": "Celle",
    "address": "Wagnerweg 40, 29223 Celle",
    "latitude": 52.629788919491496,
    "longitude": 10.057828320808616
  },
  "klixbuell": {
    "source": "//klixbuell.inetmenue.de/fs/menu/week",
    "name": "Klixbüll, Grunschule DörpsCampus GVfJ",
    "city": "Klixbüll",
    "address": "Schulstraße 5, 25899 Klixbüll",
    "latitude": 54.80245293770007,
    "longitude": 8.893850222066717
  },
  "kopernikusschule": {
    "source": "//kopernikusschule.inetmenue.de/fs/menu/week",
    "name": "Lippstadt, Kopernikusschule",
    "city": "Lippstadt",
    "address": "Landsberger Str. 9, 59557 Lippstadt",
    "latitude": 51.65654110590105,
    "longitude": 8.339574774504998
  },
  "ks-w": {
    "source": "//ks-w.inetmenue.de/fs/menu/week",
    "name": "Wallenhorst, Grundschule Katharinaschule",
    "city": "Wallenhorst",
    "address": "Schneidling 18, 49134 Wallenhorst",
    "latitude": 52.34804562336564,
    "longitude": 8.012229456614232
  },
  "kss": {
    "source": "//kss.inetmenue.de/fs/menu/week",
    "name": "Rosenberg, KSS Karl-Stirner-Schule",
    "city": "Rosenberg",
    "address": "Virngrundweg 7, 73494 Rosenberg",
    "latitude": 49.01869364676615,
    "longitude": 10.030790499748836
  },
  "labo": {
    "source": "//labo.inetmenue.de/fs/menu/week",
    "name": "Nürnberg, LABO Städtisches Labenwolf-Gymnasium",
    "city": "Nürnberg",
    "address": "Labenwolfstraße 10, 90409 Nürnberg",
    "latitude": 49.46027209401838,
    "longitude": 11.084592037889458
  },
  "landrat-lucas-opladen": {
    "source": "//landrat-lucas-opladen.inetmenue.de/fs/menu/week",
    "name": "Leverkusen, Landrat-Lucas-Gymnasium",
    "city": "Leverkusen",
    "address": "Peter-Neuenheuser-Straße 7-11, 51379 Leverkusen",
    "latitude": 51.06359918622828,
    "longitude": 7.002077733366751
  },
  "laupheim": {
    "source": "//laupheim.inetmenue.de/fs/menu/week",
    "name": "Laupheim, Schulen",
    "city": "Laupheim",
    "address": "Rabenstraße 45, 88471 Laupheim",
    "latitude": 48.22637294826096,
    "longitude": 9.881369513891467
  },
  "laupheim-hdk": {
    "source": "//laupheim-hdk.inetmenue.de/fs/menu/week",
    "name": "Laupheim, Grundschule Bronner Berg / Haus des Kindes",
    "city": "Laupheim",
    "address": "Bronner Str. 35, 88471 Laupheim",
    "latitude": 48.23459484716873,
    "longitude": 9.887313148808401
  },
  "leopoldinum": {
    "source": "//leopoldinum.inetmenue.de/fs/menu/week",
    "name": "Passau, Gymnasium Leopoldinum",
    "city": "Passau",
    "address": "Michaeligasse 15, 94032 Passau",
    "latitude": 48.57372300347397,
    "longitude": 13.470656645126619
  },
  "lessing-gymnasium-ka": {
    "source": "//lessing-gymnasium-ka.inetmenue.de/fs/menu/week",
    "name": "Karlsruhe, Lessing-Gymnasium",
    "city": "Karlsruhe",
    "address": "Sophienstraße 147, 76135 Karlsruhe",
    "phone": "0721 1334536",
    "times": "Mo-Fr 12:45-14:15 Uhr",
    "latitude": 49.0079,
    "longitude": 8.3749
  },
  "lindenberg": {
    "source": "//lindenberg.inetmenue.de/fs/menu/week",
    "name": "Ilmenau, Gymnasium „Am Lindenberg“",
    "city": "Ilmenau",
    "address": "Gerhart-Hauptmann Straße 5a, 98693 Ilmenau",
    "latitude": 50.67866747425541,
    "longitude": 10.913952208004547
  },
  "lingg": {
    "source": "//lingg.inetmenue.de/sf/index.php",
    "name": "Bad Hersfeld, Lingg-Schule",
    "city": "Bad Hersfeld",
    "address": "Wehneberger Str. 16, 36251 Bad Hersfeld",
    "latitude": 50.873157208344985,
    "longitude": 9.70454459342737
  },
  "ludwig-povel-schule-nordhorn": {
    "source": "//ludwig-povel-schule-nordhorn.inetmenue.de/fs/menu/week",
    "name": "Nordhorn, OBS Ludwig-Povel-Schule",
    "city": "Nordhorn",
    "address": "Zamenhofstraße 16, 48529 Nordhorn",
    "latitude": 52.41691919172463,
    "longitude": 7.066392746642299
  },
  "marienbergschule-nordstemmen": {
    "source": "//marienbergschule-nordstemmen.inetmenue.de/fs/menu/week",
    "name": "Nordstemmen, Marienbergschule",
    "city": "Nordstemmen",
    "address": "Schlingweg 21, 31171 Nordstemmen",
    "latitude": 52.16057102691676,
    "longitude": 9.786726946755925
  },
  "marienschule-gs-nordhorn": {
    "source": "//marienschule-gs-nordhorn.inetmenue.de/fs/menu/week",
    "name": "Nordhorn, Marienschule",
    "city": "Nordhorn",
    "address": "Von-Behring-Straße 5, 48529 Nordhorn",
    "latitude": 52.41906613684341,
    "longitude": 7.06900979965314
  },
  "mbg": {
    "source": "//mbg.inetmenue.de/fs/menu/week",
    "name": "Nürnberg, MBG Martin-Behaim-Gymnasium",
    "city": "Nürnberg",
    "address": "Schultheißallee 1, 90478 Nürnberg",
    "latitude": 49.43954231768215,
    "longitude": 11.104100402286674
  },
  "mbs": {
    "source": "//mbs.inetmenue.de/fs/menu/week",
    "name": "Obersulm/Sülzbach, MBS Michael-Beheim-Schule",
    "city": "Obersulm",
    "address": "Michael-Beheim-Str. 50, 74182 Obersulm",
    "latitude": 49.14376928965781,
    "longitude": 9.3506423413399
  },
  "megs": {
    "source": "//megs.inetmenue.de/fs/menu/week",
    "name": "Gifhorn, Michael-Ende-Schule",
    "city": "Gifhorn",
    "address": "Pommernring 11, 38518 Gifhorn",
    "phone": "05371 98790",
    "latitude": 52.47606,
    "longitude": 10.56477
  },
  "mensa-breisach": {
    "source": "//mensa-breisach.inetmenue.de/fs/menu/week",
    "name": "Breisach, JLS Julius-Leber-Schule",
    "city": "Breisach",
    "address": "Breisgaustraße 4, 79206 Breisach am Rhein",
    "phone": "07667 9066924",
    "latitude": 48.03475,
    "longitude": 7.59082,
    "categories": {
      "https://cdn.inetmenue.de/media%2F00214631%2F04699e6727.jpg": "*ignore*"
    }
  },
  "mensa-dissen": {
    "source": "//mensa-dissen.inetmenue.de/fs/menu/week",
    "name": "Dissen, Hermann-Freye-Gesamtschule Dissen",
    "city": "Dissen",
    "address": "Lerchenstr. 8, 49201 Dissen",
    "phone": "05421 9500",
    "latitude": 52.11762069620695,
    "longitude": 8.197480029716974,
    "categories": {
      "https://cdn.inetmenue.de/media%2F00901857%2F0f5a1a3acef683160294fbd0875be1bb2bd6a560.jpg": "*closed*"
    }
  },
  "mensa-gymbuchloe": {
    "source": "//mensa-gymbuchloe.inetmenue.de/fs/menu/week",
    "name": "Buchloe, Gymnasium",
    "city": "Buchloe",
    "address": "Kerschensteinerstraße 8, 86807 Buchloe",
    "phone": "08241 5079010",
    "times": "Mo-Fr 12:15-13:45 Uhr",
    "latitude": 48.02891382627097,
    "longitude": 10.725924920759327
  },
  "mensa-kcg": {
    "source": "//mensa-kcg.inetmenue.de/fs/menu/week",
    "name": "Stuttgart, KCG Königin-Charlotte-Gymnasium",
    "city": "Stuttgart",
    "address": "Sigmaringer Straße 85, 70567 Stuttgart",
    "phone": "0711 216 33750",
    "latitude": 48.730641747777625,
    "longitude": 9.15160967802664
  },
  "mensa-kiosk-hmm": {
    "source": "//mensa-kiosk-hmm.inetmenue.de/fs/menu/week",
    "name": "Mainburg, HMM Hallertauer Mittelschule",
    "city": "Mainburg",
    "address": "Ebrantshauser Str. 68, 84048 Mainburg",
    "latitude": 48.649787408881295,
    "longitude": 11.771481165169972
  },
  "mensa-kreuztal": {
    "source": "//mensa-kreuztal.inetmenue.de/fs/menu/week",
    "name": "Kreuztal, RSK / CSG Ernst-Moritz-Arndt-Realschule Clara-Schumann-Gesamtschule",
    "city": "Kreuztal",
    "address": "Herrengarten 13, 57223 Kreuztal",
    "latitude": 50.96361109861337,
    "longitude": 7.994943023916094
  },
  "mensa-morsbach": {
    "source": "//mensa-morsbach.inetmenue.de/fs/menu/week",
    "name": "Morsbach, Leonardo da Vinci Schule",
    "city": "Morsbach",
    "address": "Hahner Str. 31, 51597 Morsbach",
    "latitude": 50.867863067664935,
    "longitude": 7.722597162411288
  },
  "mensa-neu": {
    "source": "//mensa-neu.inetmenue.de/fs/menu/week",
    "name": "Neumarkt, WGG Willibald-Gluck-Gymnasium / OG Ostendorfer-Gymnasium",
    "city": "Neumarkt",
    "address": "Dr.-Grundler-Straße 5, 92318 Neumarkt",
    "latitude": 49.282484838074716,
    "longitude": 11.453783921456335,
    "categories": {
      "*test-bild": "*ignore*"
    }
  },
  "mensa-nuembrecht": {
    "source": "//mensa-nuembrecht.inetmenue.de/fs/menu/week",
    "name": "Nümbrecht, Sekundarschule Nümbrecht-Ruppichteroth",
    "city": "Nümbrecht",
    "address": "Mateh-Yehuda Str. 5, 51588 Nümbrecht",
    "latitude": 50.90521806321545,
    "longitude": 7.5345620675985625
  },
  "mensa-rsbuchloe": {
    "source": "//mensa-rsbuchloe.inetmenue.de/fs/menu/week",
    "name": "Buchloe, Realschule",
    "city": "Buchloe",
    "address": "Kerschensteinerstraße 2, 86807 Buchloe",
    "latitude": 48.02981349079833,
    "longitude": 10.727327635423006
  },
  "mensa-waldbroel": {
    "source": "//mensa-waldbroel.inetmenue.de/fs/menu/week",
    "name": "Waldbröl, Gesamtschule",
    "city": "Waldbröl",
    "address": "Höhenweg 49, 51545 Waldbröl",
    "latitude": 50.876909513185225,
    "longitude": 7.6075379893648565
  },
  "mensagymhim": {
    "source": "//mensagymhim.inetmenue.de/fs/menu/week",
    "name": "Hildesheim, Gymnasium Himmelsthür",
    "city": "Hildesheim",
    "address": "An der Fohlenkoppel 3, 31137 Hildesheim",
    "phone": "05121 9659630",
    "latitude": 52.16366629468832,
    "longitude": 9.920137621700961
  },
  "mensatreff": {
    "source": "//mensatreff.inetmenue.de/fs/menu/week",
    "name": "Neckartenzlingen, Mensatreff Schulzentrum",
    "city": "Neckartenzlingen",
    "address": "Auwiesen 4, 72654 Neckartenzlingen",
    "phone": "07127 9329750",
    "times": "Mo-Fr 11:15-13:45 Uhr",
    "latitude": 48.5851023,
    "longitude": 9.2437787,
    "categories": {
      "https://cdn.inetmenue.de/media%2F00288416%2F2e79ad7cb1d5bad8c36066c4408c230e604b0ecf.jpg": "Soup of the Day",
      "https://cdn.inetmenue.de/media%2F00288416%2Feb2032cd7579a805cb5a582efcdc74cce1e8f930.jpg": "*closed*",
      "https://cdn.inetmenue.de/media%2F00288416%2F9faf9433b97b7f3aff75f854a0aa86adabb38934.jpg": "*closed*"
    }
  },
  "menseria-oesede": {
    "source": "//menseria-oesede.inetmenue.de/fs/menu/week",
    "name": "Georgsmarienhütte, Gymnasium Oesede",
    "city": "Georgsmarienhütte",
    "address": "Gymnasium Oesede, Carl-Stahmer-Weg 19, 49124 Georgsmarienhütte",
    "phone": "",
    "latitude": 52.20212617064726,
    "longitude": 8.051472209903961,
    "times": "Mo-Fr 12:00-14:00 Uhr",
    "categories": {
      "https://cdn.inetmenue.de/media%2F03137012%2Fca7de5e3e1344a09f6707cfda3208b7babc91a28.jpg": "*closed*"
    }
  },
  "mgf": {
    "source": "//mgf.inetmenue.de/fs/menu/week",
    "name": "Kulmbach, MGF Markgraf-Georg-Friedrich -Gymnasium",
    "city": "Kulmbach",
    "address": "Schießgraben 1, 95326 Kulmbach",
    "latitude": 50.10515853131234,
    "longitude": 11.460953711267413
  },
  "mgl": {
    "source": "//mgl.inetmenue.de/fs/menu/week",
    "name": "Lichtenfels, MGL Meranier-Gymnasium",
    "city": "Lichtenfels",
    "address": "Kronacher Straße 34, 96215 Lichtenfels",
    "phone": "09571 95130",
    "latitude": 50.14879613850174,
    "longitude": 11.075471492004315
  },
  "mittelschule-suro": {
    "source": "//mittelschule-suro.inetmenue.de/fs/menu/week",
    "name": "Sulzbach-Rosenberg, Krötensee-Mittelschule",
    "city": "Sulzbach-Rosenberg",
    "address": "Dieselstraße 29, 92237 Sulzbach-Rosenberg",
    "latitude": 49.49563550139708,
    "longitude": 11.734388403861729
  },
  "mmg": {
    "source": "//mmg.inetmenue.de/fs/menu/week",
    "name": "Vilsbiburg, MMG Maximilian-von-Montgelas Gymnasium",
    "city": "Vilsbiburg",
    "address": "Gobener Straße 4, 84137 Vilsbiburg",
    "phone": "08741 96520",
    "latitude": 48.45697275882763,
    "longitude": 12.362763793790512
  },
  "mns": {
    "source": "//mns.inetmenue.de/fs/menu/week",
    "name": "Riedstadt, MNS Martin-Niemöller-Schule",
    "city": "Riedstadt",
    "address": "Freiherr-vom-Stein-Str. 5, 64560 Riedstadt",
    "latitude": 49.8308084519306,
    "longitude": 8.497527050712645
  },
  "moerike": {
    "source": "//moerike.inetmenue.de/fs/menu/week",
    "name": "Esslingen, Mörike Gymnasium",
    "city": "Esslingen",
    "address": "Neckarstraße 38, 73728 Esslingen am Neckar",
    "latitude": 48.73691150894668,
    "longitude": 9.310646078298385
  },
  "moerike-lb": {
    "source": "//moerike-lb.inetmenue.de/fs/menu/week",
    "name": "Ludwigsburg, MGL Mörike-Gymnasium",
    "city": "Ludwigsburg",
    "address": "Karlstraße 19, 71638 Ludwigsburg",
    "latitude": 48.892574412273945,
    "longitude": 9.189453065964718
  },
  "monte-lauf": {
    "source": "//monte-lauf.inetmenue.de/fs/menu/week",
    "name": "Lauf, Montessori Schule",
    "city": "Lauf",
    "address": "Daschstraße 16, 91207 Lauf a. d. Pegnitz",
    "latitude": 49.51765,
    "longitude": 11.26616,
    "categories": {
      "*test-bild": "*ignore*",
      "https://cdn.inetmenue.de/media%2F00050911%2Fb3462fe8db55f052e2c8c5b4af7cc076875b21f6.jpg": "*closed*"
    }
  },
  "morgenroethe": {
    "source": "//morgenroethe.inetmenue.de/fs/menu/week",
    "name": "Siegen, GAM Gymnasium „Auf der Morgenröthe“",
    "city": "Siegen",
    "address": "Höllenwaldstraße 100, 57080 Siegen",
    "latitude": 50.84806595840751,
    "longitude": 7.982240508300759
  },
  "ms-ei": {
    "source": "//ms-ei.inetmenue.de/fs/menu/week",
    "name": "Eichstätt, Mittelschule Schottenau",
    "city": "Eichstätt",
    "address": "Schottenau 18, 85072 Eichstätt",
    "phone": "08421 9344992000",
    "times": "Mo-Do 12:00-13:30 Uhr",
    "latitude": 48.88670520518449,
    "longitude": 11.194643274605117
  },
  "ms-helmbrechts": {
    "source": "//ms-helmbrechts.inetmenue.de/fs/menu/week",
    "name": "Helmbrechts, MSH Mittelschule",
    "city": "Helmbrechts",
    "address": "Moltkestraße 9A, 95233 Helmbrechts",
    "latitude": 50.23458909957531,
    "longitude": 11.715149828291956
  },
  "ms-kunigundenschule": {
    "source": "//ms-kunigundenschule.inetmenue.de/fs/menu/week",
    "name": "Lauf, Kunigunden Mittelschule",
    "city": "Lauf",
    "address": "Kunigundenstraße 17, 91207 Lauf a.d. Pegnitz",
    "latitude": 49.516569710883815,
    "longitude": 11.273770058300668
  },
  "ms-m-sf": {
    "source": "//ms-m-sf.inetmenue.de/fs/menu/week",
    "name": "Sonthofen, Mittelschule",
    "city": "Sonthofen",
    "address": "Hindelanger Str. 21, 87527 Sonthofen",
    "latitude": 47.512920922072105,
    "longitude": 10.28860534096985
  },
  "msa": {
    "source": "//msa.inetmenue.de/fs/menu/week",
    "name": "Altdorf, MSA Mittelschule",
    "city": "Altdorf",
    "address": "Schulstraße 2, 90518 Altdorf bei Nürnberg",
    "latitude": 49.387610553564954,
    "longitude": 11.342686221144305
  },
  "msk": {
    "source": "//msk.inetmenue.de/fs/menu/week",
    "name": "Kümmersbruck, MSK Mittelschule",
    "city": "Kümmersbruck",
    "address": "Schulstraße 43, 92245 Kümmersbruck",
    "latitude": 49.42123723364977,
    "longitude": 11.884364725088405
  },
  "mw-jk": {
    "source": "//mw-jk.inetmenue.de/fs/menu/week",
    "name": "Mühlhausen/Höngeda, Freie Gemeinschaftsschule „Janusz Korczak“",
    "city": "Mühlhausen",
    "address": "Thomas-Müntzer-Weg 6, 99998 Mühlhausen/Thüringen",
    "latitude": 51.18706470837522,
    "longitude": 10.495970556906597
  },
  "mw-n-neu": {
    "source": "//mw-n-neu.inetmenue.de/fs/menu/week",
    "name": "Nürnberg, Maria-Ward-Schulen",
    "city": "Nürnberg",
    "address": "Keßlerpl. 2, 90489 Nürnberg",
    "latitude": 49.452473284533504,
    "longitude": 11.08983828210572
  },
  "mw-tgs": {
    "source": "//mw-tgs.inetmenue.de/fs/menu/week",
    "name": "Mühlhausen, Freie Gemeinschaftsschule „Janusz Korczak“ Schillerweg",
    "city": "Mühlhausen",
    "address": "Schillerweg 59, 99974 Mühlhausen/Thüringen",
    "latitude": 51.20315744992728,
    "longitude": 10.455362353200119
  },
  "mw-wfbm": {
    "source": "//mw-wfbm.inetmenue.de/fs/menu/week",
    "name": "Mühlhausen/Görmar, WfbM Werkstatt für Menschen mit Behinderung",
    "city": "Mühlhausen",
    "address": "Treffurter Weg 14A, 99974 Mühlhausen/Thüringen",
    "latitude": 51.198218906612375,
    "longitude": 10.471242006049925
  },
  "mwg-bayreuth": {
    "source": "//mwg-bayreuth.inetmenue.de/fs/menu/week",
    "name": "Bayreuth, MWG Markgräfin-Wilhelmine-Gymnasium",
    "city": "Bayreuth",
    "address": "Königsallee 17, 95448 Bayreuth",
    "latitude": 49.940568265636905,
    "longitude": 11.59227696377857
  },
  "nadelberg-celle": {
    "source": "//nadelberg-celle.inetmenue.de/fs/menu/week",
    "name": "Celle, Grundschule Nadelberg",
    "city": "Celle",
    "address": "Schulstraße 6, 29227 Celle",
    "latitude": 52.60639879531487,
    "longitude": 10.076153648561641
  },
  "neuenstadt": {
    "source": "//neuenstadt.inetmenue.de/fs/menu/week",
    "name": "Neuenstadt, Helmbundschule / Eduard-Mörike-Gymnasium",
    "city": "Neuenstadt am Kocher",
    "address": "Gymnasiumstraße 16, 74196 Neuenstadt am Kocher",
    "phone": "07139 480210",
    "latitude": 49.23401897196118,
    "longitude": 9.337171822430221
  },
  "neukirchen": {
    "source": "//neukirchen.inetmenue.de/fs/menu/week",
    "name": "Neukirchen, EMS Emil-Nolde-Schule",
    "city": "Neukirchen",
    "address": "Otzhusumweg 6, 25927 Neukirchen",
    "latitude": 54.86819396792167,
    "longitude": 8.735438051429378
  },
  "ng-n": {
    "source": "//ng-n.inetmenue.de/fs/menu/week",
    "name": "Nürnberg, NGN Neues Gymnasium",
    "city": "Nürnberg",
    "address": "Weddigenstraße 21, 90478 Nürnberg",
    "latitude": 49.43878622828837,
    "longitude": 11.10734188047471
  },
  "obs-deegfeld-nordhorn": {
    "source": "//obs-deegfeld-nordhorn.inetmenue.de/fs/menu/week",
    "name": "Nordhorn, Oberschule Deegfeld",
    "city": "Nordhorn",
    "address": "Deegfelder Weg 90, 48531 Nordhorn",
    "latitude": 52.450254758534335,
    "longitude": 7.072586201176799
  },
  "obs-emstek": {
    "source": "//obs-emstek.inetmenue.de/fs/menu/week",
    "name": "Emstek, OBS Oberschule",
    "city": "Emstek",
    "address": "Ostlandstraße 19, 49685 Emstek",
    "latitude": 52.836874411196355,
    "longitude": 8.158737681567226
  },
  "obsd": {
    "source": "//obsd.inetmenue.de/fs/menu/week",
    "name": "Dinklage, OBS Oberschule",
    "city": "Dinklage",
    "address": "Kösters Gang 11, 49413 Dinklage",
    "latitude": 52.659302413402486,
    "longitude": 8.124006237611201
  },
  "oggs": {
    "source": "//oggs.inetmenue.de/fs/menu/week",
    "name": "Hankensbüttel, OGGS Offene Ganztagsgrundschule",
    "city": "Hankensbüttel",
    "address": "Schulstraße 6, 29386 Hankensbüttel",
    "latitude": 52.72805,
    "longitude": 10.60713,
    "categories": {
      "https://cdn.inetmenue.de/media%2F01148668%2F8a8b0c37aa70e954d4caac219a0100c67a0f541b.png": "Vegetarisch",
      "https://cdn.inetmenue.de/media%2F01148668%2F892b78ee934d480b7e108094b9ec95f11c90e43a.png": "Fleisch",
      "https://cdn.inetmenue.de/media%2F01148668%2F609a5e8853e668d58801a06a3ad1ea74a30a36a9.png": "Fisch",
      "https://cdn.inetmenue.de/media%2F01148668%2F7af1629d2217254cd2db24117f93c1d4e0556dd8.png": "Geflügel",
      "https://cdn.inetmenue.de/media%2F01148668%2F390ebcb31fd884b631aa554b1fea94c9b80f8419.jpg": "*ignore*"
    }
  },
  "ogo": {
    "source": "//ogo.inetmenue.de/fs/menu/week",
    "name": "Oberviechtach, OGO Ortenburg Gymnasium",
    "city": "Oberviechtach",
    "address": "Jahnstraße 18, 92526 Oberviechtach",
    "latitude": 49.45752328356775,
    "longitude": 12.409787049342514,
    "categories": {
      "https://cdn.inetmenue.de/media%2F00083883%2Fa740d6272ae30187be5afe7f111aed4d656cf11a.jpg": "*ignore*",
      "https://cdn.inetmenue.de/media%2F00083883%2F92adc8f9a82149753dd745e4b20c1cb2.jpg": "*ignore*"
    }
  },
  "ogtsnaila": {
    "source": "//ogtsnaila.inetmenue.de/fs/menu/week",
    "name": "Naila, OGTS Grundschule",
    "city": "Naila",
    "address": "Albin-Klöber-Str. 11, 95119 Naila",
    "latitude": 50.33081222673757,
    "longitude": 11.703420064601923
  },
  "ors-holzgerlingen": {
    "source": "//ors-holzgerlingen.inetmenue.de/fs/menu/week",
    "name": "Holzgerlingen, ORS Otto-Rommel-Realschule",
    "city": "Holzgerlingen",
    "address": "Schillerstraße 15, 71088 Holzgerlingen",
    "phone": "07031 68599 10",
    "latitude": 48.64297498482937,
    "longitude": 9.01553256647106
  },
  "ottohahn-lb": {
    "source": "//ottohahn-lb.inetmenue.de/fs/menu/week",
    "name": "Ludwigsburg, OHG Otto-Hahn-Gymnasium",
    "city": "Ludwigsburg",
    "address": "Kaiserstraße 14, 71636 Ludwigsburg",
    "latitude": 48.898843824754564,
    "longitude": 9.176104776779374
  },
  "paul-moor-schule": {
    "source": "//paul-moor-schule.inetmenue.de/fs/menu/week",
    "name": "Nürnberg, Paul-Moor-Schule",
    "city": "Nürnberg",
    "address": "Schafhofstraße 27, 90411 Nürnberg",
    "latitude": 49.47953630089475,
    "longitude": 11.12021897667739
  },
  "pestalozzischule-celle": {
    "source": "//pestalozzischule-celle.inetmenue.de/fs/menu/week",
    "name": "Celle, Pestalozzischule",
    "city": "Celle",
    "address": "Carstensstraße 11, 29225 Celle",
    "latitude": 52.61513834205857,
    "longitude": 10.057951067210684
  },
  "pestalozzischule-gs-nordhorn": {
    "source": "//pestalozzischule-gs-nordhorn.inetmenue.de/fs/menu/week",
    "name": "Nordhorn, Pestalozzischule",
    "city": "Nordhorn",
    "address": "Pestalozzistraße 23, 48527 Nordhorn",
    "latitude": 52.45031721009082,
    "longitude": 7.055636187509273
  },
  "pestalozzischule-suro": {
    "source": "//pestalozzischule-suro.inetmenue.de/fs/menu/week",
    "name": "Sulzbach-Rosenberg, Pestalozzi Grundschule",
    "city": "Sulzbach-Rosenberg",
    "address": "Konrad-Mayer-Straße 2, 92237 Sulzbach-Rosenberg",
    "phone": "09661 4524",
    "latitude": 49.500029133952005,
    "longitude": 11.747499998925138
  },
  "pg-n": {
    "source": "//pg-n.inetmenue.de/fs/menu/week",
    "name": "Nürnberg, PGN Pirckheimer-Gymnasium",
    "city": "Nürnberg",
    "address": "Gibitzenhofstraße 151, 90443 Nürnberg",
    "latitude": 49.43130414985435,
    "longitude": 11.06758616672424
  },
  "phg": {
    "source": "//phg.inetmenue.de/fs/menu/week",
    "name": "Nürtingen, PHG Peter-Härtling-Privatgymnasium",
    "city": "Nürtingen",
    "address": "Sigmaringer Straße 15/1, 72622 Nürtingen",
    "latitude": 48.62894535003844,
    "longitude": 9.341626701065177
  },
  "phr": {
    "source": "//phr.inetmenue.de/fs/menu/week",
    "name": "Nürnberg, PHR Peter-Henlein-Realschule",
    "city": "Nürnberg",
    "address": "Pommernstraße 10, 90451 Nürnberg",
    "latitude": 49.411764769092436,
    "longitude": 11.044516757318437
  },
  "pmhg": {
    "source": "//pmhg.inetmenue.de/fs/menu/week",
    "name": "Leinfelden-Echterdingen, PMHG Philipp-Matthäus-Hahn-Gymnasium",
    "city": "Leinfelden-Echterdingen",
    "address": "Schimmelwiesenstraße 24, 70771 Leinfelden-Echterdingen",
    "latitude": 48.68916613151776,
    "longitude": 9.155206539439481
  },
  "ppg-hersbruck": {
    "source": "//ppg-hersbruck.inetmenue.de/fs/menu/week",
    "name": "Hersbruck, PPG Paul-Pfinzing-Gymnasium",
    "city": "Hersbruck",
    "address": "Amberger Straße 30, 91217 Hersbruck",
    "latitude": 49.51111279999074,
    "longitude": 11.435365157955655
  },
  "pprgym": {
    "source": "//pprgym.inetmenue.de/fs/menu/week",
    "name": "Siegen, PPR Peter-Paul-Rubens Gymnasium",
    "city": "Siegen",
    "address": "Rosterstraße 143, 57074 Siegen",
    "latitude": 50.861406812596684,
    "longitude": 8.01905281125199
  },
  "propsteischule": {
    "source": "//propsteischule.inetmenue.de/fs/menu/week",
    "name": "Westhausen, Propsteischule",
    "city": "Westhausen",
    "address": "Jahnstraße 4, 73463 Westhausen",
    "phone": "07363 8441",
    "latitude": 48.885246886169035,
    "longitude": 10.189778848021389
  },
  "pthv": {
    "source": "//pthv.inetmenue.de/fs/menu/week",
    "name": "Vallendar, VPU Vinzenz Pallotti University (PTHV)",
    "city": "Vallendar",
    "address": "Pallottistraße 3, 56179 Vallendar",
    "latitude": 50.40153982904267,
    "longitude": 7.626580586829977
  },
  "real-euro": {
    "source": "//real-euro.inetmenue.de/fs/menu/week",
    "name": "Erlangen, Realschule am Europakanal",
    "city": "Erlangen",
    "address": "Schallershofer Straße 18, 91056 Erlangen",
    "latitude": 49.59923,
    "longitude": 10.97757,
    "categories": {
      "*test-bild": "*ignore*",
      "https://cdn.inetmenue.de/media%2F00050911%2Fb3462fe8db55f052e2c8c5b4af7cc076875b21f6.jpg": "*closed*",
      "https://cdn.inetmenue.de/media%2F00050911%2F70585db5f85dec4bb23a0e1b422a341da39d9bb1.jpg": "*closed*"
    }
  },
  "realschule-ansbach": {
    "source": "//realschule-ansbach.inetmenue.de/fs/menu/week",
    "name": "Ansbach, Johann Steingruber Realschule",
    "city": "Ansbach",
    "address": "Schreibmüllerstraße 12, 91522 Ansbach",
    "latitude": 49.31438624741298,
    "longitude": 10.558840571446128
  },
  "realschule-bernhausen": {
    "source": "//realschule-bernhausen.inetmenue.de/fs/menu/week",
    "name": "Filderstadt/Bernhausen, Realschule Fleinsbachschule",
    "city": "Filderstadt",
    "address": "Poltawastraße 3, 70794 Filderstadt",
    "latitude": 48.671933229532264,
    "longitude": 9.212884638735542
  },
  "realschule-kulmbach": {
    "source": "//realschule-kulmbach.inetmenue.de/fs/menu/week",
    "name": "Kulmbach, CvL Realschule Carl-von-Linde-Schule",
    "city": "Kulmbach",
    "address": "Alte Forstlahmer Straße 16, 95326 Kulmbach",
    "latitude": 50.09059088594021,
    "longitude": 11.459267316337455
  },
  "rehau": {
    "source": "//rehau.inetmenue.de/fs/menu/week",
    "name": "Rehau, Schulzentrum",
    "city": "Rehau",
    "address": "Pilgramsreuther Str. 34, 95111 Rehau",
    "latitude": 50.242785373914835,
    "longitude": 12.03125126597183
  },
  "rg-r": {
    "source": "//rg-r.inetmenue.de/fs/menu/week",
    "name": "Rothenburg, RSG Reichsstadt Gymnasium",
    "city": "Rothenburg",
    "address": "Dinkelsbühler Straße 5, 91541 Rothenburg o.d.T.",
    "latitude": 49.36557644394375,
    "longitude": 10.191395997198478
  },
  "rgs-lauf": {
    "source": "//rgs-lauf.inetmenue.de/fs/menu/week",
    "name": "Lauf, RGS Richard-Glimpel-Schule",
    "city": "Lauf",
    "address": "Daschstraße 6, 91207 Lauf a. d. Pegnitz",
    "latitude": 49.51645807058568,
    "longitude": 11.26653877364143
  },
  "roggenkamp-gs-nordhorn": {
    "source": "//roggenkamp-gs-nordhorn.inetmenue.de/fs/menu/week",
    "name": "Nordhorn, Grundschule am Roggenkamp",
    "city": "Nordhorn",
    "address": "Am Roggenkamp 14, 48527 Nordhorn",
    "latitude": 52.447323952773445,
    "longitude": 7.061983967330259
  },
  "rs-gy-bramsche": {
    "source": "//rs-gy-bramsche.inetmenue.de/fs/menu/week",
    "name": "Osnabrück/Bramsche, IGS Greselius-Gymnasium",
    "city": "Osnabrück",
    "address": "Kreishaus Am Schölerberg 1, 49082 Osnabrück",
    "latitude": 52.413431063432114,
    "longitude": 7.995202047371241
  },
  "rs-hoki": {
    "source": "//rs-hoki.inetmenue.de/fs/menu/week",
    "name": "Holzkirchen, Oberlandrealschule",
    "city": "Holzkirchen",
    "address": "Probst-Sigl-Straße 3, 83607 Holzkirchen",
    "latitude": 47.88371580720883,
    "longitude": 11.69300762037649
  },
  "rsah": {
    "source": "//rsah.inetmenue.de/fs/menu/week",
    "name": "Siegen, RSAdM Realschule „Auf der Morgenröthe“",
    "city": "Siegen",
    "address": "Höllenwaldstraße 100, 57080 Siegen",
    "latitude": 50.84847911009674,
    "longitude": 7.981933999324836
  },
  "rsbonlanden": {
    "source": "//rsbonlanden.inetmenue.de/fs/menu/week",
    "name": "Filderstadt, Realschule Bonlanden Bildungszentrum Seefälle",
    "city": "Filderstadt",
    "address": "Mahlestraße 20, 70794 Filderstadt",
    "latitude": 48.65168139111748,
    "longitude": 9.209969371526402
  },
  "rsheinsberg": {
    "source": "//rsheinsberg.inetmenue.de/fs/menu/week",
    "name": "Heinsberg, Realschule „Im Klevchen“",
    "city": "Heinsberg",
    "address": "Schafhausener Straße 41, 52525 Heinsberg",
    "latitude": 51.058202965544744,
    "longitude": 6.103932071748455
  },
  "rso": {
    "source": "//rso.inetmenue.de/fs/menu/week",
    "name": "Obersulm, RSO Realschule",
    "city": "Obersulm",
    "address": "Pestalozzistraße 37, 74182 Obersulm",
    "latitude": 49.138914217484476,
    "longitude": 9.3520781716872
  },
  "rso-es": {
    "source": "//rso-es.inetmenue.de/fs/menu/week",
    "name": "Esslingen/Oberesslingen, RSO Realschule",
    "city": "Esslingen",
    "address": "Banatstr. 20, 73730 Esslingen",
    "latitude": 48.73123366137397,
    "longitude": 9.339828245198522
  },
  "rss-do": {
    "source": "//rss-do.inetmenue.de/fs/menu/week",
    "name": "Dortmund/Brünninghausen, Rudolf-Steiner-Schule",
    "city": "Dortmund",
    "address": "Mergelteichstraße 51, 44225 Dortmund",
    "latitude": 51.47191148772544,
    "longitude": 7.463198920639732,
    "categories": {
      "https://cdn.inetmenue.de/media%2F00566442%2F4d8b881292cb5cf57bf827c067650a18f15936afc56e387c50c63a180ae6e90f.jpg": "*ignore*",
      "https://cdn.inetmenue.de/media%2F00566442%2Fb30686a69d50c73610de721df04a07b08101efb8.jpg": "*ignore*"
    }
  },
  "rsz": {
    "source": "//rsz.inetmenue.de/fs/menu/week",
    "name": "Zirndorf, RSZ Realschule",
    "city": "Zirndorf",
    "address": "Jakob-Wassermann-Straße 1, 90513 Zirndorf",
    "latitude": 49.44119590997631,
    "longitude": 10.943786004871686
  },
  "sabel-nbg": {
    "source": "//sabel-nbg.inetmenue.de/fs/menu/week",
    "name": "Nürnberg, NBG SABEL Schulen",
    "city": "Nürnberg",
    "address": "Isarstraße 4, 90451 Nürnberg",
    "latitude": 49.44378929792187,
    "longitude": 11.085284993533133
  },
  "sbs-w": {
    "source": "//sbs-w.inetmenue.de/fs/menu/week",
    "name": "Wallenhorst, St. Bernhard-Schule",
    "city": "Wallenhorst",
    "address": "St.Bernhardsweg 3, 49134 Wallenhorst",
    "latitude": 52.33739681014907,
    "longitude": 8.057408562223394
  },
  "schelztor-gymnasium": {
    "source": "//schelztor-gymnasium.inetmenue.de/fs/menu/week",
    "name": "Esslingen, Schelztor Gymnasium",
    "city": "Esslingen",
    "address": "Barbarossastraße 85, 73732 Esslingen am Neckar",
    "phone": "+4971135123350",
    "latitude": 48.753757291015454,
    "longitude": 9.30713370844987
  },
  "schiller-lb": {
    "source": "//schiller-lb.inetmenue.de/fs/menu/week",
    "name": "Ludwigsburg, FSG Friedrich-Schiller-Gymnasium",
    "city": "Ludwigsburg",
    "address": "Alleenstraße 16, 71638 Ludwigsburg",
    "latitude": 48.892848142318094,
    "longitude": 9.189032345711928
  },
  "schillerpark": {
    "source": "//schillerpark.inetmenue.de/fs/menu/week",
    "name": "Esslingen, Schule Innenstadt / Schillerpark",
    "city": "Esslingen",
    "address": "Blumenstraße 10, 73728 Esslingen am Neckar",
    "latitude": 48.735139291057685,
    "longitude": 9.315443738556887
  },
  "schillerschule": {
    "source": "//schillerschule.inetmenue.de/fs/menu/week",
    "name": "Kornwestheim, Schillerschule",
    "city": "Kornwestheim",
    "address": "Schillerstraße 13, 70806 Kornwestheim",
    "latitude": 48.86725199279066,
    "longitude": 9.187627156952269
  },
  "schloss-gaienhofen": {
    "source": "//schloss-gaienhofen.inetmenue.de/fs/menu/week",
    "name": "Gaienhofen, Schloss Gaienhofen Evangelische Schule am Bodensee",
    "city": "Gaienhofen",
    "address": "Schlossstrasse 6, 78343 Gaienhofen",
    "latitude": 47.68008889303969,
    "longitude": 8.980339086302518,
    "categories": {
      "https://cdn.inetmenue.de/media%2F00251474%2F22ffc3c1463cdea837be8bf30723b61651d48c39.jpg": "*ignore*"
    }
  },
  "schloss-gs-ka": {
    "source": "//schloss-gs-ka.inetmenue.de/fs/menu/week",
    "name": "Karlsruhe/Durlach, SSD Schloss Grundschule",
    "city": "Karlsruhe",
    "address": "Prinzessenstraße 1, 76227 Karlsruhe",
    "latitude": 48.997894080316,
    "longitude": 8.473671572665763
  },
  "schmecktsdannbassts": {
    "source": "//schmecktsdannbassts.inetmenue.de/fs/menu/week",
    "name": "Nabburg, Schulzentrum",
    "city": "Nabburg",
    "address": "Rotbühlring 4, 92507 Nabburg",
    "latitude": 49.45255061518086,
    "longitude": 12.176042025883566
  },
  "schule-altusried": {
    "source": "//schule-altusried.inetmenue.de/fs/menu/week",
    "name": "Altusried, Grundschule und Mittelschule",
    "city": "Altusried",
    "address": "Schulstraße 5, 87452 Altusried",
    "latitude": 47.80281638028818,
    "longitude": 10.214039715871031
  },
  "schule-jsw-sr": {
    "source": "//schule-jsw-sr.inetmenue.de/fs/menu/week",
    "name": "Rudolstadt/Keilhau Freie Fröbelschule / K12 Saalfeld-Rudolstadt",
    "city": "Rudolstadt",
    "address": "Robert-Birkner-Straße 17-27, 07407 Rudolstadt",
    "latitude": 50.713655287359984,
    "longitude": 11.247766825245728
  },
  "schulekarlstrasse": {
    "source": "//schulekarlstrasse.inetmenue.de/fs/menu/week",
    "name": "Delmenhorst, Schule an der Karlstraße",
    "city": "Delmenhorst",
    "address": "Karlstraße 8, 27749 Delmenhorst",
    "latitude": 53.045323395585626,
    "longitude": 8.633921200983488
  },
  "schulen-awo-ku": {
    "source": "//schulen-awo-ku.inetmenue.de/fs/menu/week",
    "name": "Mainleus, Grundschule und Mittelschule",
    "city": "Mainleus",
    "address": "Schulstraße 1, 95336 Mainleus",
    "latitude": 50.09837085235675,
    "longitude": 11.377105897838273
  },
  "schulestellerstrasse": {
    "source": "//schulestellerstrasse.inetmenue.de/fs/menu/week",
    "name": "Delmenhorst, Schule an der Karlstraße/Steller Straße",
    "city": "Delmenhorst",
    "address": "Steller Straße 5, 27755 Delmenhorst",
    "latitude": 53.02039,
    "longitude": 8.64799
  },
  "schulkueche-elsterberg": {
    "source": "//schulkueche-elsterberg.inetmenue.de/fs/menu/week",
    "name": "Elsterberg, Schulküche Grundschule",
    "city": "Elsterberg",
    "address": "Wallstraße 16, 07985 Elsterberg",
    "latitude": 50.60795195497653,
    "longitude": 12.16699167383315
  },
  "schulzentrum-bueren": {
    "source": "//schulzentrum-bueren.inetmenue.de/fs/menu/week",
    "name": "Büren, Schulzentrum Gesamtschule",
    "city": "Büren",
    "address": "Kleffnerstraße 4-6, 33142 Büren",
    "latitude": 51.548977277651176,
    "longitude": 8.554209724329247,
    "categories": {
      "https://cdn.inetmenue.de/media%2F00125584%2F98c46562f7c6a4fb9a4064d806e1810f00851f2c.png": "Geflügel",
      "https://cdn.inetmenue.de/media%2F00125584%2F2330cfd44a2a4bc814cef407b5b9e5c3ec35c871.png": "Vegetarisch",
      "https://cdn.inetmenue.de/media%2F00125584%2Fa75d3537e34047114f5fa150346a22d572cfe1b8.png": "Fisch",
      "https://cdn.inetmenue.de/media%2F00125584%2F788d1ac9129bc07b793296821cac66bdf4e31dd1.png": "Fleisch"
    }
  },
  "schulzentrum-neureut-ka": {
    "source": "//schulzentrum-neureut-ka.inetmenue.de/fs/menu/week",
    "name": "Karlsruhe, Schulzentrum Gymnasium Neureut",
    "city": "Karlsruhe",
    "address": "Unterfeldstraße 6, 76149 Karlsruhe",
    "latitude": 49.04536318966478,
    "longitude": 8.377361326425985
  },
  "schulzentrumnaila": {
    "source": "//schulzentrumnaila.inetmenue.de/fs/menu/week",
    "name": "Naila, Schulzentrum",
    "city": "Naila",
    "address": "Finkenweg 17, 95119 Naila",
    "latitude": 50.33620186955921,
    "longitude": 11.701871750640096
  },
  "schwarmstedt": {
    "source": "//schwarmstedt.inetmenue.de/fs/menu/week",
    "name": "Schwarmstedt, KGS Wilhelm-Röpke-Schule",
    "city": "Schwarmstedt",
    "address": "Am Beu 2, 29690 Schwarmstedt",
    "latitude": 52.67799544864814,
    "longitude": 9.612562672900031
  },
  "scs": {
    "source": "//scs.inetmenue.de/fs/menu/week",
    "name": "Neumarkt, SCS Schwarz Computer Systeme",
    "city": "Neumarkt",
    "address": "Altenhofweg 2A, 92318 Neumarkt in der Oberpfalz",
    "latitude": 49.291093424433804,
    "longitude": 11.473224910739772
  },
  "seewiesen": {
    "source": "//seewiesen.inetmenue.de/fs/menu/week",
    "name": "Esslingen, Seewiesenschule",
    "city": "Esslingen",
    "address": "Seracher Str. 50, 73732 Esslingen am Neckar",
    "latitude": 48.75256146329984,
    "longitude": 9.310760875550729
  },
  "sek-lev": {
    "source": "//sek-lev.inetmenue.de/fs/menu/week",
    "name": "Leverkusen, Sekundarschule",
    "city": "Leverkusen",
    "address": "Neukronenberger Str. 81, 51381 Leverkusen",
    "latitude": 51.06728876195563,
    "longitude": 7.028646104451491
  },
  "sek-radevormwald": {
    "source": "//sek-radevormwald.inetmenue.de/fs/menu/week",
    "name": "Radevormwald, Sekundarschule",
    "city": "Radevormwald",
    "address": "Kaiserstr. 140, 42477 Radevormwald",
    "latitude": 51.206017809267735,
    "longitude": 7.34710015956476
  },
  "sek-warstein": {
    "source": "//sek-warstein.inetmenue.de/fs/menu/week",
    "name": "Warstein, Sekwa Sekundarschule",
    "city": "Warstein",
    "address": "Pietrapaola-Platz 4, 59581 Warstein",
    "latitude": 51.48695673691618,
    "longitude": 8.339058285762821
  },
  "sek-wk": {
    "source": "//sek-wk.inetmenue.de/fs/menu/week",
    "name": "Wermelskirchen, Sekundarschule",
    "city": "Wermelskirchen",
    "address": "Wirtsmühler Str. 12, 42929 Wermelskirchen",
    "latitude": 51.14288771880645,
    "longitude": 7.226587722864713
  },
  "sekundarschule-engelskirchen": {
    "source": "//sekundarschule-engelskirchen.inetmenue.de/fs/menu/week",
    "name": "Engelskirchen/Walbach, Sekundarschule",
    "city": "Engelskirchen",
    "address": "Walbach 1, 51766 Engelskirchen",
    "latitude": 50.99755746587281,
    "longitude": 7.460685063618775
  },
  "sfz-ei": {
    "source": "//sfz-ei.inetmenue.de/fs/menu/week",
    "name": "Eichstätt, Schule an der Altmühl",
    "city": "Eichstätt",
    "address": "Schottenau 10, 85072 Eichstätt",
    "latitude": 48.88728591452793,
    "longitude": 11.195903317314587
  },
  "sfz-suro": {
    "source": "//sfz-suro.inetmenue.de/fs/menu/week",
    "name": "Sulzbach-Rosenberg, Sonderpädagogisches Förderzentrum",
    "city": "Sulzbach-Rosenberg",
    "address": "Dieselstraße 35, 92237 Sulzbach-Rosenberg",
    "phone": "09661 8724 0",
    "latitude": 49.49474233001532,
    "longitude": 11.734374905914846
  },
  "silcherschule": {
    "source": "//silcherschule.inetmenue.de/fs/menu/week",
    "name": "Kornwestheim, Silcherschule",
    "city": "Kornwestheim",
    "address": "Jakob-Sigle-Platz 9, 70806 Kornwestheim",
    "latitude": 48.85981070806114,
    "longitude": 9.18338143116689
  },
  "spomi": {
    "source": "//spomi.inetmenue.de/fs/menu/week",
    "name": "Leipzig, SportOberschule",
    "city": "Leipzig",
    "address": "Max-Planck-Straße 53-55, 04105 Leipzig",
    "latitude": 51.349362896531325,
    "longitude": 12.351820710416314
  },
  "sportgym": {
    "source": "//sportgym.inetmenue.de/fs/menu/week",
    "name": "Leipzig, Landesgymnasium für Sport",
    "city": "Leipzig",
    "address": "Marschnerstraße 30, 04109 Leipzig",
    "phone": "0341 9857500",
    "latitude": 51.3391,
    "longitude": 12.3557
  },
  "sportschule-chemnitz": {
    "source": "//sportschule-chemnitz.inetmenue.de/fs/menu/week",
    "name": "Chemnitz, Sportschulen",
    "city": "Chemnitz",
    "address": "Reichenhainer Str. 210, 09125 Chemnitz",
    "latitude": 50.804073976016014,
    "longitude": 12.935170645023392
  },
  "sylt": {
    "source": "//sylt.inetmenue.de/fs/menu/week",
    "name": "Westerland, Schulzentrum Sylt",
    "city": "Sylt (Westerland)",
    "address": "Tonderner Straße 12, 25980 Sylt (Westerland)",
    "phone": "04651 957 43 10",
    "latitude": 54.91721392812992,
    "longitude": 8.313840292131003,
    "categories": {
      "https://cdn.inetmenue.de/media%2F00143229%2F9fe992db13a3d3763add2d2f1b0fd118e07dce34.jpg": "Menü 1",
      "https://cdn.inetmenue.de/media%2F00143229%2F22e22239f6146d08f476b2c622e7788a1992fad3.jpg": "Menü 2",
      "https://cdn.inetmenue.de/media%2F00143229%2F14358_salatbuffet.jpg": "Salat Buffet",
      "https://cdn.inetmenue.de/media%2F00143229%2F10995_achtung.jpg": "Achtung",
      "https://cdn.inetmenue.de/media%2F00143229%2F12042_schneemann.gif": "*closed*"
    }
  },
  "szkatzenstein": {
    "source": "//szkatzenstein.inetmenue.de/fs/menu/week",
    "name": "Wernau, Schulzentrum Katzenstein",
    "city": "Wernau",
    "address": "Adlerstraße 74, 73249 Wernau (Neckar)",
    "latitude": 48.694250971676084,
    "longitude": 9.424722839368995
  },
  "szu": {
    "source": "//szu.inetmenue.de/fs/menu/week",
    "name": "Wien, SZU Schulzentrum HTL HAK Ungargasse",
    "city": "Wien (Österreich)",
    "address": "Ungargasse 69, 1030 Wien (Österreich)",
    "latitude": 48.19632562595825,
    "longitude": 16.38722340954401
  },
  "tamm": {
    "source": "//tamm.inetmenue.de/fs/menu/week",
    "name": "Tamm, Schulzentrum",
    "city": "Tamm",
    "address": "Rilkestraße 16, 71732 Tamm",
    "latitude": 48.92462577910537,
    "longitude": 9.119281025199777
  },
  "tbs": {
    "source": "//tbs.inetmenue.de/fs/menu/week",
    "name": "Weingarten, TBS Turmbergschule",
    "city": "Weingarten",
    "address": "Schulstraße 2, 76356 Weingarten",
    "latitude": 49.05097825803446,
    "longitude": 8.530654879060455
  },
  "tfs": {
    "source": "//tfs.inetmenue.de/fs/menu/week",
    "name": "Wiesbaden, TFS Theodor Fliedner Schule",
    "city": "Wiesbaden",
    "address": "Biegerstraße 15, 65191 Wiesbaden",
    "latitude": 50.07915256072955,
    "longitude": 8.280134013581534
  },
  "theodor-heuss-realschule": {
    "source": "//theodor-heuss-realschule.inetmenue.de/fs/menu/week",
    "name": "Kornwestheim, THRS Theodor-Heuss-Realschule",
    "city": "Kornwestheim",
    "address": "Theodor-Heuss-Straße 34, 70806 Kornwestheim",
    "latitude": 48.85767464516226,
    "longitude": 9.198547737006123
  },
  "thg-noe": {
    "source": "//thg-noe.inetmenue.de/fs/menu/week",
    "name": "Nördlingen, THG Theodor-Heuss-Gymnasium",
    "city": "Nördlingen",
    "address": "Schäufelinstr. 8, 86720 Nördlingen",
    "latitude": 48.84399725462016,
    "longitude": 10.497265490545873
  },
  "tob-wiehl": {
    "source": "//tob-wiehl.inetmenue.de/fs/menu/week",
    "name": "Wiehl, TOB Sekundarschule",
    "city": "Wiehl",
    "address": "Weierhofweg 22, 51674 Wiehl",
    "latitude": 50.964005496287,
    "longitude": 7.511146419377438
  },
  "tss": {
    "source": "//tss.inetmenue.de/fs/menu/week",
    "name": "Husum, TSS Theodor-Storm-Schule",
    "city": "Husum",
    "address": "Ludwig-Nissen-Straße 62, 25813 Husum",
    "latitude": 54.475469482252436,
    "longitude": 9.06264016158057,
    "categories": {
      "https://cdn.inetmenue.de/media%2F00154054%2F11282_theodor_storm_schule.jpg": "*ignore*"
    }
  },
  "ursulinen": {
    "source": "//ursulinen.inetmenue.de/fs/menu/week",
    "name": "Straubing, Schulen Ursulinen Kloster",
    "city": "Straubing",
    "address": "Burggasse 40, 94315 Straubing",
    "latitude": 48.88425814212574,
    "longitude": 12.573382747896213
  },
  "velburg": {
    "source": "//velburg.inetmenue.de/fs/menu/week",
    "name": "Velburg, GMS Grundschule und Mittelschule",
    "city": "Velburg",
    "address": "Alte Seubersdorfer Straße 15, 92355 Velburg",
    "phone": "09182 931353 0",
    "latitude": 49.22733192776429,
    "longitude": 11.672891587873806
  },
  "viro": {
    "source": "//viro.inetmenue.de/fs/menu/week",
    "name": "Dissen, VIRO Lernstandort Noller Schlucht gGmbH",
    "city": "Dissen",
    "address": "Rechenbergstraße 100, 49201 Dissen",
    "phone": "05421 9433 0",
    "latitude": 52.133507360727044,
    "longitude": 8.199300548134001,
    "categories": {
      "https://cdn.inetmenue.de/media%2F03137012%2Fca7de5e3e1344a09f6707cfda3208b7babc91a28.jpg": "*closed*"
    }
  },
  "vmg": {
    "source": "//vmg.inetmenue.de/fs/menu/week",
    "name": "Regensburg/Königswiesen, VMG Von-Müller-Gymnasium",
    "city": "Regensburg",
    "address": "Erzbischof-Buchberger-Allee 21, 93051 Regensburg",
    "latitude": 49.0042207491978,
    "longitude": 12.074163011494738
  },
  "vogelsang-solingen": {
    "source": "//vogelsang-solingen.inetmenue.de/fs/menu/week",
    "name": "Solingen, Schulzentrum Vogelsang",
    "city": "Solingen",
    "address": "Vogelsang 33, 42653 Solingen",
    "latitude": 51.18586073887762,
    "longitude": 7.061445816592197
  },
  "vorwerk-celle": {
    "source": "//vorwerk-celle.inetmenue.de/fs/menu/week",
    "name": "Celle/Vorwerk, Grunschule",
    "city": "Celle",
    "address": "Bosteler Weg 17, 29229 Celle",
    "latitude": 52.65034627003612,
    "longitude": 10.103593466132436
  },
  "waldorf-am-see": {
    "source": "//waldorf-am-see.inetmenue.de/fs/menu/week",
    "name": "Überlingen, Freie Waldorfschule am Bodensee",
    "city": "Überlingen",
    "address": "Rengoldshauser Str. 20, 88662 Überlingen",
    "latitude": 47.7725364676803,
    "longitude": 9.199414667095608,
    "categories": {
      "https://cdn.inetmenue.de/media%2F00195534%2F0bf7a3173bbce3a20dcabc2885094b4e669d99fb.jpg": "Salat"
    }
  },
  "waldschule-gs-nordhorn": {
    "source": "//waldschule-gs-nordhorn.inetmenue.de/fs/menu/week",
    "name": "Nordhorn, Grundschule Waldschule",
    "city": "Nordhorn",
    "address": "Ootmarsumer Weg 26, 48527 Nordhorn",
    "latitude": 52.430613105220736,
    "longitude": 7.05523055875402
  },
  "waldweg-celle": {
    "source": "//waldweg-celle.inetmenue.de/fs/menu/week",
    "name": "Celle/Waldweg, Grundschule",
    "city": "Celle",
    "address": "Waldweg 59, 29221 Celle",
    "latitude": 52.60766601503471,
    "longitude": 10.06793217102272
  },
  "walter-luebcke-schule": {
    "source": "//walter-luebcke-schule.inetmenue.de/fs/menu/week",
    "name": "Wolfhagen, WLS Walter-Lübcke-Schule",
    "city": "Wolfhagen",
    "address": "Kurfürstenstraße 20, 34466 Wolfhagen",
    "latitude": 51.321409911581384,
    "longitude": 9.175027690418592
  },
  "wbg-lgz": {
    "source": "//wbg-lgz.inetmenue.de/fs/menu/week",
    "name": "Langenzenn, Wolfgang-Borchert-Gymnasium",
    "city": "Langenzenn",
    "address": "Sportplatzstraße 2, 90579 Langenzenn",
    "phone": "09101 904180",
    "latitude": 49.49212,
    "longitude": 10.78007,
    "categories": {
      "*test-bild": "*ignore*",
      "https://cdn.inetmenue.de/media%2F00050911%2F70585db5f85dec4bb23a0e1b422a341da39d9bb1.jpg": "*closed*"
    }
  },
  "weidigs-esspunkt": {
    "source": "//weidigs-esspunkt.inetmenue.de/fs/menu/week",
    "name": "Butzbach, Weidigschule / Weidigs Esspunkt",
    "city": "Butzbach",
    "address": "Im Vogelsang 8, 35510 Butzbach",
    "phone": "06033 91170",
    "times": "Mo-Fr 13:15-14:00 Uhr",
    "latitude": 50.43255,
    "longitude": 8.65454,
    "categories": {
      "https://cdn.inetmenue.de/media%2F00307739%2F3c6a983bffd3b3014511c5c3fedf9e4327662a629230519b98211a6c9b93fa22.jpg": "*ignore*"
    }
  },
  "wg-n": {
    "source": "//wg-n.inetmenue.de/fs/menu/week",
    "name": "Nürnberg, WGN Willstätter Gymnasium",
    "city": "Nürnberg",
    "address": "Innerer Laufer Pl. 11, 90403 Nürnberg",
    "latitude": 49.456585549741234,
    "longitude": 11.083007573440732
  },
  "wiesmoor": {
    "source": "//wiesmoor.inetmenue.de/fs/menu/week",
    "name": "Wiesmoor, KGS Kooperative Gesamtschule",
    "city": "Wiesmoor",
    "address": "Schulstraße 8, 26639 Wiesmoor",
    "latitude": 53.416092200519245,
    "longitude": 7.734959372428249
  },
  "wietze": {
    "source": "//wietze.inetmenue.de/fs/menu/week",
    "name": "Wietze, Grundschule",
    "city": "Wietze",
    "address": "Schulstraße 2, 29323 Wietze",
    "latitude": 52.65056664119955,
    "longitude": 9.84503429776066
  },
  "wietzenbruch-celle": {
    "source": "//wietzenbruch-celle.inetmenue.de/fs/menu/week",
    "name": "Celle/Wietzenbruch, Grundschule und Hauptschule",
    "city": "Celle",
    "address": "Waldschmiede 3, 29225 Celle",
    "latitude": 52.603330913438285,
    "longitude": 10.01533689111798
  },
  "wilhelmstadtschulen": {
    "source": "//wilhelmstadtschulen.inetmenue.de/fs/menu/week",
    "name": "Berlin, Wilhelmstadtschulen",
    "city": "Berlin",
    "address": "Haus 18, 13593 Berlin",
    "latitude": 52.51922406295267,
    "longitude": 13.179725895665452
  },
  "wirtschaftsschule-dinkelsbuehl": {
    "source": "//wirtschaftsschule-dinkelsbuehl.inetmenue.de/fs/menu/week",
    "name": "Dinkelsbühl, Wirtschaftsschule",
    "city": "Dinkelsbühl",
    "address": "Wörter Str. 17, 91550 Dinkelsbühl",
    "latitude": 49.06524660728919,
    "longitude": 10.312404015347589
  },
  "ws-n": {
    "source": "//ws-n.inetmenue.de/fs/menu/week",
    "name": "Nürnberg, Wirtschaftsschule",
    "city": "Nürnberg",
    "address": "Nunnenbeckstraße 40, 90489 Nürnberg",
    "phone": "0911 23115 31",
    "latitude": 49.45647,
    "longitude": 11.09451
  },
  "zrs": {
    "source": "//zrs.inetmenue.de/fs/menu/week",
    "name": "Esslingen, ZRS Zollberg Realschule",
    "city": "Esslingen",
    "address": "Boßlerstraße 9-13, 73734 Esslingen am Neckar",
    "latitude": 48.726885085933034,
    "longitude": 9.306089084815216
  },
  "zum-hirtenberg": {
    "source": "//zum-hirtenberg.inetmenue.de/fs/menu/week",
    "name": "Geratal, Grundschule Geschwenda / Zum Hirtenberg",
    "city": "Geratal",
    "address": "Gutshof 19A, 98716 Geratal",
    "latitude": 50.73098370152967,
    "longitude": 10.824442728406671
  }
}