{
  "bolzano": {
    "name": "Bozen, Freie Universität",
    "city": "Bozen (Italien)",
    "latitude": 46.4982139,
    "longitude": 11.3508767,
    "address": "Universitätsplatz 1, I-39100 Bolzano (BZ)",
    "phone": "+39 0471 011 761",
    "times": "Mo-Fr 11:45-14:30 Uhr",
    "source": "/menu/{timestamp}/0/3783/",
    "domain" : "unibz.markas.info",
    "change_language": "de"
  },
  "bressanone": {
    "name": "Brixen, Freie Universität",
    "city": "Brixen (Italien)",
    "latitude": 46.71511,
    "longitude": 11.65342,
    "address": "Regensburger Allee 16, I-39042 Bressanone (BZ)",
    "phone": "+39 0472 201 070",
    "times": "Mo-Sa 12:00-14:30 Uhr",
    "source": "/menu/{timestamp}/0/3799/",
    "domain" : "unibz.markas.info",
    "change_language": "de"
  },
  "scuolececina": {
    "name": "Cecina, Scuole Comune de Cecina",
    "city": "Cecina (Italien)",
    "latitude": 43.31209,
    "longitude": 10.51889,
    "address": "Piazza Carducci 28, I-57023 Cecina (LI)",
    "phone": "+39 0586 611 111",
    "times": "Mo-Fr 11:00-15:00 Uhr",
    "source": "/menu/",
    "domain" : "scuolececina.ristocloud.net"
  },
  "vasto.infanzia": {
    "name": "Vasto, Vitto comune Infanzia",
    "city": "Vasto (Italien)",
    "latitude": 43.31209,
    "longitude": 10.51889,
    "address": "Piazza Barbacani 2, I-66054 Vasto (CH)",
    "phone": "+39 0873 3091",
    "times": "Mo-Fr 11:00-15:00 Uhr",
    "source": "/menu/{timestamp}/0/63",
    "domain" : "comunedivasto.epspacloud.it"
  },
  "vasto.primaria": {
    "name": "Vasto, Vitto comune Primaria",
    "city": "Vasto (Italien)",
    "latitude": 42.11236419657155,
    "longitude": 14.70481029540193,
    "address": "Piazza Barbacani 2, I-66054 Vasto (CH)",
    "phone": "+39 0873 3091",
    "times": "Mo-Fr 11:00-15:00 Uhr",
    "source": "/menu/{timestamp}/0/64",
    "domain" : "comunedivasto.epspacloud.it"
  },
  "sulmona.infanzia": {
    "name": "Sulmona, Scuola dell'infanzia",
    "city": "Sulmona (Italien)",
    "latitude": 42.044739412968966,
    "longitude": 13.926481567182238,
    "address": "Via Mazara 21, I-67039 Sulmona (AQ)",
    "phone": "+39 0864 2421",
    "times": "Mo-Fr 11:00-15:00 Uhr",
    "source": "/menu/{timestamp}/2/1/3",
    "domain" : "comunedisulmona.epspacloud.it"
  },
  "sulmona.primaria": {
    "name": "Sulmona, Scuola primaria",
    "city": "Sulmona (Italien)",
    "latitude": 42.05221336924199,
    "longitude": 13.921518496457015,
    "address": "Via Mazara 21, I-67039 Sulmona (AQ)",
    "phone": "+39 0864 2421",
    "times": "Mo-Fr 11:00-15:00 Uhr",
    "source": "/menu/{timestamp}/3/1/3",
    "domain" : "comunedisulmona.epspacloud.it"
  },
  "sulmona.secondaria": {
    "name": "Sulmona, Scuola secondaria",
    "city": "Sulmona (Italien)",
    "latitude": 42.05372095536806,
    "longitude": 13.930433173568762,
    "address": "Via Mazara 21, I-67039 Sulmona (AQ)",
    "phone": "+39 0864 2421",
    "times": "Mo-Fr 11:00-15:00 Uhr",
    "source": "/menu/{timestamp}/4/1/3",
    "domain" : "comunedisulmona.epspacloud.it"
  }
}
