{
  "flyinn": {
    "id": "K00110_DEU",
    "name": "Innsbruck, Fly Inn Flughafen Innsbruck (Mittag)",
    "city": "Innsbruck (Österreich)",
    "address": "Fürstenweg 180, A-6020 Innsbruck (Österreich)",
    "latitude": 47.2577639,
    "longitude": 11.3512209
  },
  "siemens-sts": {
    "id": "K00910_DEU",
    "name": "Wien, Siemens STS (Mittag)",
    "city": "Wien (Österreich)",
    "address": "Leberstraße 34, A-1110 Wien (Österreich)",
    "latitude": 48.17901,
    "longitude": 16.40496
  },
  "oekb": {
    "id": "K02610_DEU",
    "name": "Wien, OeKB Oesterreichische Kontrollbank (Mittag)",
    "city": "Wien (Österreich)",
    "address": "Strauchgasse 3, A-1010 Wien (Österreich)",
    "latitude": 48.210599509170834,
    "longitude": 16.365949370812146
  },
  "roche": {
    "id": "K03110_DEU",
    "name": "Wien, Roche (Mittag)",
    "city": "Wien (Österreich)",
    "address": "Engelhorngasse 3, A-1210 Wien (Österreich)",
    "latitude": 48.26050950070473,
    "longitude": 16.408807886851214
  },
  "izd": {
    "id": "K03610_DEU",
    "name": "Wien, IZD (Mittag)",
    "city": "Wien (Österreich)",
    "address": "Wagramerstr. 19, A-1220 Wien (Österreich)",
    "latitude": 48.23474740927973,
    "longitude": 16.420946666365563
  },
  "bosch-goellner": {
    "id": "K07710_DEU",
    "name": "Wien, Bosch Goellnergasse (Mittag)",
    "city": "Wien (Österreich)",
    "address": "Goellnergasse 15, A-1030 Wien (Österreich)",
    "latitude": 48.2008680868154,
    "longitude": 16.400021736948542
  },
  "bosch-geiereck": {
    "id": "K0774001_DEU",
    "name": "Wien, Bosch Geiereckstraße",
    "city": "Wien (Österreich)",
    "address": "Geiereckstraße 6, A-1110 Wien (Österreich)",
    "latitude": 48.176058723340006,
    "longitude": 16.399036643221983
  },
  "amag": {
    "id": "K08110_DEU",
    "name": "Ranshofen, AMAG (Mittag)",
    "city": "Ranshofen (Österreich)",
    "address": "Lamprechtshausner Straße 61, A-5282 Ranshofen (Österreich)",
    "latitude": 48.22845302234374,
    "longitude": 13.032836238929853
  },
  "omv-schwechat": {
    "id": "K08410_DEU",
    "name": "Schwechat, OMV Schwechat (Mittag)",
    "city": "Schwechat (Österreich)",
    "address": "Mannswörther Straße 28, A-2320 Schwechat (Österreich)",
    "latitude": 48.14816127661288,
    "longitude": 16.494766253078254
  },
  "omv-kwizda": {
    "id": "K08410_Kwizda_DEU",
    "name": "Schwechat, OMV Kwizda",
    "city": "Schwechat (Österreich)",
    "address": "Mannswörther Straße 28, A-2320 Schwechat (Österreich)",
    "latitude": 48.148282954125726,
    "longitude": 16.493868730943763
  },
  "ami": {
    "id": "K08810_DEU",
    "name": "Linz, AMI (Mittag)",
    "city": "Linz (Österreich)",
    "address": "Sankt Peter Straße 25, A-4020 Linz (Österreich)",
    "latitude": 48.28769371127183,
    "longitude": 14.324738101461564
  },
  "pke": {
    "id": "K09110_DEU",
    "name": "Wien, PKE (Mittag)",
    "city": "Wien (Österreich)",
    "address": "Computerstraße 6, A-1100 Wien (Österreich)",
    "latitude": 48.15898427492481,
    "longitude": 16.339598132567943
  },
  "herba": {
    "id": "K10210_DEU",
    "name": "Wien, Herba Chemosan (Mittag)",
    "city": "Wien (Österreich)",
    "address": "Haidestraße 4, A-1110 Wien (Österreich)",
    "latitude": 48.17860324080023,
    "longitude": 16.428754805232337
  },
  "ait": {
    "id": "K10410_DEU",
    "name": "Seibersdorf, AIT Austrian Institute of Technology (Mittag)",
    "city": "Seibersdorf (Österreich)",
    "address": "Forschungszentrum Seibersdorf, A-2444 Seibersdorf (Österreich)",
    "latitude": 47.97769494352753,
    "longitude": 16.508863889298127
  },
  "lam": {
    "id": "K11010_DEU",
    "name": "Villach, LAM - Mittag",
    "city": "Villach (Österreich)",
    "address": "SEZ-Straße 1, A-9500 Villach (Österreich)",
    "latitude": 46.619428217476084,
    "longitude": 13.83616264032666
  },
  "ibm": {
    "id": "K11510_DEU",
    "name": "Wien, IBM (Mittag)",
    "city": "Wien (Österreich)",
    "address": "Obere Donaustraße 95, A-1020 Wien (Österreich)",
    "latitude": 48.21349536828129,
    "longitude": 16.376908866262575
  },
  "plaza": {
    "id": "K13710_DEU",
    "name": "Wien, Eurest Plaza (Mittag)",
    "city": "Wien (Österreich)",
    "address": "Am Europlatz 2 Gebäude G, A-1120 Wien (Österreich)",
    "latitude": 48.1710118,
    "longitude": 16.3327216
  },
  "omv-head": {
    "id": "K13910_DEU",
    "name": "Wien, OMV Head Office (Mittag)",
    "city": "Wien (Österreich)",
    "address": "Trabrennstrasse 6-8, A-1020 Wien (Österreich)",
    "latitude": 48.21362,
    "longitude": 16.41429
  },
  "siemens-city": {
    "id": "K14010_DEU",
    "name": "Wien, Siemens City (Mittag)",
    "city": "Wien (Österreich)",
    "address": "Siemensstraße 92, A-1210 Wien (Österreich)",
    "latitude": 48.267811901559206,
    "longitude": 16.4247401238259
  },
  "siemens_fresh": {
    "id": "K14010_FH_DEU",
    "name": "Wien, Siemens Fresh@Home",
    "city": "Wien (Österreich)",
    "address": "Siemensstraße 92, A-1210 Wien (Österreich)",
    "latitude": 48.267148219952496,
    "longitude": 16.425456123603034
  },
  "bnr": {
    "id": "K14410_DEU",
    "name": "Eggelsberg, B&R Bernecker & Rainer (Mittag)",
    "city": "Eggelsberg (Österreich)",
    "address": "Bernecker & Reiner Straße 1, A-5142 Eggelsberg (Österreich)",
    "latitude": 48.07298389622619,
    "longitude": 12.987654374652944
  },
  "energie": {
    "id": "K14710_DEU",
    "name": "Graz, Energie Steiermark (Mittag)",
    "city": "Graz (Österreich)",
    "address": "Leonhardgürtel 10, A-8010 Graz (Österreich)",
    "latitude": 47.074684872722386,
    "longitude": 15.454607932620933
  },
  "techbase": {
    "id": "K15110_DEU",
    "name": "Wien, Techbase",
    "city": "Wien (Österreich)",
    "address": "Siemensstraße 103/Giefinggasse 2, A-1210 Wien (Österreich)",
    "latitude": 48.268232575647296,
    "longitude": 16.427236462997122
  },
  "porr": {
    "id": "K15510_DEU",
    "name": "Wien, Porr AG (Mittag)",
    "city": "Wien (Österreich)",
    "address": "Absberggasse 47, A-1100 Wien (Österreich)",
    "latitude": 48.16790866459597,
    "longitude": 16.387366726491383
  },
  "wuwien": {
    "id": "K16510_DEU",
    "name": "Wien, WU Mensa",
    "city": "Wien (Österreich)",
    "address": "Gebäude D1/Top 1, Welthandelsplatz 1, A-1020 Wien (Österreich)",
    "phone": "+43 (0)676 884 882 54",
    "latitude": 48.21318,
    "longitude": 16.40937,
    "times": "Mo-Fr 11:00-15:00"
  },
  "vis": {
    "id": "K16610_DEU",
    "name": "Wien, VIS Vienna International School",
    "city": "Wien (Österreich)",
    "address": "Straße der Menschenrechte 1, A-1220 Wien (Österreich)",
    "latitude": 48.24514813222894,
    "longitude": 16.432204245042833
  },
  "manner": {
    "id": "K17510_DEU",
    "name": "Wien, Manner (Mittag)",
    "city": "Wien (Österreich)",
    "address": "Wilhelminenstraße 6, A-1171 Wien (Österreich)",
    "latitude": 48.2166154586465,
    "longitude": 16.32223560056192
  },
  "vic": {
    "id": "K17710_DEU",
    "name": "Wien, VIC Vienna International Centre",
    "city": "Wien (Österreich)",
    "address": "Wagramer Straße 5, A-1400 Wien (Österreich)",
    "times": "Mo-Fr 11:30-14:30",
    "latitude": 48.235717379116714,
    "longitude": 16.41664893235875
  },
  "apple": {
    "id": "K18010_DEU",
    "name": "Linz, Apple B.V. & Co. KG",
    "city": "Linz (Österreich)",
    "address": "Freistädterstraße 400, A-4040 Linz (Österreich)",
    "latitude": 48.32,
    "longitude": 14.32
  },
  "omv-gaenserndorf": {
    "id": "K18210_DEU",
    "name": "Gänserndorf, OMV (Mittag)",
    "city": "Gänserndorf (Österreich)",
    "address": "Protteser Straße 40, A-2230 Gänserndorf (Österreich)",
    "latitude": 48.35255621231953,
    "longitude": 16.73220390271128
  },
  "florido": {
    "id": "K18310_DEU",
    "name": "Wien, Florido Tower (Peak Vienna)",
    "city": "Wien (Österreich)",
    "address": "Floridsdorfer Hauptstraße 1, A-1210 Wien (Österreich)",
    "latitude": 48.25284938125975,
    "longitude": 16.39246009313206
  },
  "orf-kuenigl": {
    "id": "K19010_DEU",
    "name": "Wien, ORF Küniglberg (Mittag)",
    "city": "Wien (Österreich)",
    "address": "Würzburggasse 30, A-1130 Wien (Österreich)",
    "latitude": 48.1775284370815,
    "longitude": 16.28987300687446
  },
  "orf-funkhaus": {
    "id": "K19110_DEU",
    "name": "Wien, ORF Funkhaus (Mittag)",
    "city": "Wien (Österreich)",
    "address": "Argentinier Straße 30, A-1040 Wien (Österreich)",
    "latitude": 48.19468131584793,
    "longitude": 16.372969033062805
  },
  "orf-storchen": {
    "id": "K19210_DEU",
    "name": "Wien, ORF Storchengasse (Mittag)",
    "city": "Wien (Österreich)",
    "address": "Storchengasse 1, A-1150 Wien (Österreich)",
    "latitude": 48.184952402340876,
    "longitude": 16.33247212016186
  },
  "wuerth": {
    "id": "K19310_DEU",
    "name": "Böheimkirchen, Würth (Mittag)",
    "city": "Böheimkirchen (Österreich)",
    "address": "Würth Straße 1, A-3071 Böheimkirchen (Österreich)",
    "latitude": 48.191632378566105,
    "longitude": 15.769929478719808
  },
  "intervet": {
    "id": "K19710_DEU",
    "name": "Wien, Intervet (Mittag)",
    "city": "Wien (Österreich)",
    "address": "Siemensstrasse 107, A-1210 Wien (Österreich)",
    "latitude": 48.26766667876592,
    "longitude": 16.430244842526886
  },
  "stihl": {
    "id": "K19810_DEU",
    "name": "Langkampfen, Stihl Tirol",
    "city": "Langkampfen (Österreich)",
    "address": "Hans Peter Stihl Straße 2, A-6336 Langkampfen / Kufstein (Österreich)",
    "latitude": 47.557063236804495,
    "longitude": 12.118698712010499
  },
  "austriacampus-bf6": {
    "id": "K19910_DEU",
    "name": "Wien, Austria Campus BF6 Quartier Sechs",
    "city": "Wien (Österreich)",
    "address": "Rothschildplatz 2, A-1020 Wien (Österreich)",
    "latitude": 48.22293727005208,
    "longitude": 16.393384166173583
  },
  "austriacampus-wirtual": {
    "id": "K19910_FH_DEU",
    "name": "Wien, Austria Campus WIRT:UAL",
    "city": "Wien (Österreich)",
    "address": "Rothschildplatz 2, A-1020 Wien (Österreich)",
    "latitude": 48.22260307852186,
    "longitude": 16.393138184928834
  },
  "evva": {
    "id": "K23110_DEU",
    "name": "Wien, EVVA (Mittag)",
    "city": "Wien (Österreich)",
    "address": "Wienerbergstraße 59-65, A-1120 Wien (Österreich)",
    "latitude": 48.171814955592055,
    "longitude": 16.328737411884966
  },
  "cincinatti": {
    "id": "K24910_DEU",
    "name": "Wien, Cincinatti (Mittag)",
    "city": "Wien (Österreich)",
    "address": "Laxenburger Strasse 246, A-1230 Wien (Österreich)",
    "latitude": 48.138383130372716,
    "longitude": 16.357272524399615
  },
  "knorr": {
    "id": "K25010_DEU",
    "name": "Kematen, Knorr-Bremse IFE (Mittag)",
    "city": "Kematen (Österreich)",
    "address": "33a Straße 1, A-3331 Kematen / Ybbs (Österreich)",
    "latitude": 48.03617001413638,
    "longitude": 14.77413449652216
  },
  "salesianer": {
    "id": "K26810_DEU",
    "name": "Wien, Salesianer Miettex (Mittag)",
    "city": "Wien (Österreich)",
    "address": "Rautenweg 53, A-1220 Wien (Österreich)",
    "latitude": 48.26084576639538,
    "longitude": 16.472336700351466
  },
  "rocxel": {
    "id": "K27210_DEU",
    "name": "Wien, Rocxel (Mittag)",
    "city": "Wien (Österreich)",
    "address": "Thurngasse 10, A-1090 Wien (Österreich)",
    "latitude": 48.218795795336476,
    "longitude": 16.36059680390529
  },
  "mercedes": {
    "id": "K27510_DEU",
    "name": "Wien, Mercedes Wiesenthal",
    "city": "Wien (Österreich)",
    "address": "Troststrasse 109-111, A-1100 Wien (Österreich)",
    "latitude": 48.17143625224352,
    "longitude": 16.356031777463112
  },
  "novartis-kundl": {
    "id": "K27610_DEU",
    "name": "Kundl, Novartis Sandoz",
    "city": "Kundl (Österreich)",
    "address": "Biochemiestrasse 10, A-6250 Kundl (Österreich)",
    "latitude": 47.468031500130955,
    "longitude": 11.979752206138786
  },
  "novartis-schafftenau": {
    "id": "K27710_DEU",
    "name": "Langkampfen, Novartis Sandoz (Schafftenau)",
    "city": "Schafftenau (Österreich)",
    "address": "Kantine Bau 590, Biochemiestrasse 10, A-6336 Langkampfen (Österreich)",
    "latitude": 47.55415131416638,
    "longitude": 12.116091080735318
  },
  "austrian": {
    "id": "K27810_DEU",
    "name": "Schwechat, Austrian Airlines HQ Mitarbeiterrestaurant",
    "city": "Schwechat (Österreich)",
    "address": "Office Park 2, A-1300 Schwechat (Österreich)",
    "latitude": 48.123155488002595,
    "longitude": 16.563913477700446
  },
  "abb": {
    "id": "K28010_DEU",
    "name": "Mödling, ABB AG (Österreich)",
    "city": "Mödling (Österreich)",
    "address": "Brown Boveri Strasse 3, A-2351 Mödling (Österreich)",
    "latitude": 48.07635569889987,
    "longitude": 16.30665211303509
  },
  "lindner": {
    "id": "K28410_DEU",
    "name": "Spittal, Lindner Recyclingtech",
    "city": "Spittal/Drau (Österreich)",
    "address": "Manuel-Lindner-Straße 1, A-9800 Spittal an der Drau (Österreich)",
    "latitude": 46.79158379931501,
    "longitude": 13.50913076841943
  },
  "rinterzelt": {
    "id": "K28810_DEU",
    "name": "Wien, Rinterzelt MA 48 / Wien Kanal, Standort Rinter",
    "city": "Wien (Österreich)",
    "address": "Percostraße 2, A-1220 Wien (Österreich)",
    "latitude": 48.26205820745117,
    "longitude": 16.46578124956643
  },
  "tyrolit": {
    "id": "K28910_DEU",
    "name": "Schwaz, Tyrolit Schleifmittelwerke Swarovski",
    "city": "Schwaz (Österreich)",
    "address": "Swarovskistraße 33, A-6130 Schwaz (Österreich)",
    "latitude": 47.346147366823665,
    "longitude": 11.700808206535848
  },
  "rauch": {
    "id": "K29010_DEU",
    "name": "Rankweil, Food Bar RAUCH Fruchtsäfte",
    "city": "Rankweil (Österreich)",
    "address": "Langgasse 1, A-6830 Rankweil (Österreich)",
    "latitude": 47.26891379666418,
    "longitude": 9.636900675010164
  },
  "erdberger": {
    "id": "K29210_DEU",
    "name": "Wien, Erdberger Lände E3 - 292",
    "city": "Wien (Österreich)",
    "address": "Haidingergasse 1-15, A-1030 Wien (Österreich)",
    "latitude": 48.201876444418595,
    "longitude": 16.4005102920494
  },
  "austriacampus-wirtual2": {
    "id": "K30010_DEU",
    "name": "Wien, Austria Campus WIRT:UAL 2",
    "city": "Wien (Österreich)",
    "address": "Rothschildplatz 2, A-1020 Wien (Österreich)",
    "latitude": 48.222326330215786,
    "longitude": 16.393249955898654
  }
}